업소명,소재지도로명주소,소재지지번주소,address,latitude,longitude,chain
원당커피숍,서울특별시 강서구 강서로 381,서울특별시 강서구 마곡동 722-1 ,서울특별시 강서구 마곡동 722-1,126.838208851776,37.5595493845585,
떼르드글라스화곡우장산점,서울특별시 강서구 화곡로13길 28,서울특별시 강서구 화곡동 1043-0 ,서울특별시 강서구 화곡동 1043-0,126.833489084999,37.5411664393045,
컴포즈커피,서울특별시 강서구 양천로 431,서울특별시 강서구 가양동 18-24 ,서울특별시 강서구 가양동 18-24,126.849960213917,37.5642640468035,
샤론,서울특별시 강서구 등촌로 101,서울특별시 강서구 등촌동 564-1 배광교회 (지상 1층) ,서울특별시 강서구 등촌동 564-1,126.86327815078,37.5390161590296,
허니네커피,서울특별시 강서구 강서로45가길 47,서울특별시 강서구 화곡동 1013-13 2층 202호,서울특별시 강서구 화곡동 1013-13,126.835756395755,37.5458702138994,
더와이즈 커피숍,서울특별시 강서구 까치산로 23,서울특별시 강서구 화곡동 105-68 외 4필지 (지상 1층) ,서울특별시 강서구 화곡동 105-68,126.842891765255,37.5420811330984,
탐앤탐스 화곡역점,서울특별시 강서구 화곡로 176-4,서울특별시 강서구 화곡동 1076-1 화곡메디칼 (지상 1~ 2층 일부) ,서울특별시 강서구 화곡동 1076-1,126.841148635684,37.54165776434,
바이주 커피 로스터스(BYJOO COFFEE ROASTERS),서울특별시 강서구 수명로 68-35,서울특별시 강서구 내발산동 750-10 웨스트엔드중정 3층 304호,서울특별시 강서구 내발산동 750-10,126.82677164429,37.5529862473925,
그라나다카페,서울특별시 강서구 허준로5길 37,서울특별시 강서구 가양동 1470-2 (지상 1층) A동 ,서울특별시 강서구 가양동 1470-2,126.851117193596,37.5685363187372,
커피더캠프공덕점,서울특별시 강서구 초원로 50,서울특별시 강서구 방화동 600-26 지하1층 ,서울특별시 강서구 방화동 600-26,126.810878241181,37.5676705239232,
커피에이엠,서울특별시 강서구 화곡로 296,서울특별시 강서구 화곡동 980-21 (지상 1층) 110호,서울특별시 강서구 화곡동 980-21,126.849042833815,37.5505765598689,
카페모아실로암안과병원점(실로암장애인근로사업장),서울특별시 강서구 등촌로 181,서울특별시 강서구 등촌동 512-18 외 1필지 실로암안과병원 (지상 1층) ,서울특별시 강서구 등촌동 512-18,126.86223980574,37.5460169755054,
호텔디아망,서울특별시 강서구 남부순환로 190,서울특별시 강서구 외발산동 280-1 외 2필지 (지하 2층) ,서울특별시 강서구 외발산동 280-1,126.819312984161,37.5484382779299,
칸토빈,서울특별시 강서구 방화동로 지하 30,서울특별시 강서구 공항동 산 20-2 공항시장역 9호선 (지하 1층) ,서울특별시 강서구 공항동 산 20-2,126.810492268589,37.5635555121815,
윤지,서울특별시 강서구 가로공원로84길 7-5,서울특별시 강서구 화곡동 367-116 (지상 1층) ,서울특별시 강서구 화곡동 367-116,126.840518575624,37.5372613004848,
뜰안에,서울특별시 강서구 강서로7길 150,서울특별시 강서구 화곡동 936-8 (지상 1층) ,서울특별시 강서구 화곡동 936-8,126.839434579576,37.5288453010889,
카페인더애틱 Cafe in the Attic,서울특별시 강서구 양천로 19,서울특별시 강서구 방화동 498-4 (지상 1층) 104호,서울특별시 강서구 방화동 498-4,126.806007387736,37.5728161264221,
카페모나티,서울특별시 강서구 남부순환로 222,서울특별시 강서구 외발산동 428-0 서울자동차학원 (지상 1층) 사무동 ,서울특별시 강서구 외발산동 428-0,126.819529654405,37.5460594346556,
커피타라 Coffee Tara,서울특별시 강서구 공항대로55길 10,서울특별시 강서구 등촌동 650-0 (지상 1층) ,서울특별시 강서구 등촌동 650-0,126.860814526264,37.5535248506677,
미스터로티,서울특별시 강서구 강서로 179,서울특별시 강서구 화곡동 1051-27 K빌딩 (지상 1층) ,서울특별시 강서구 화곡동 1051-27,126.839322200876,37.5423627575293,
아시아나타운점 까페,서울특별시 강서구 오정로 443-83,서울특별시 강서구 오쇠동 47-0 외 1필지 (지하 1층) ,서울특별시 강서구 오쇠동 47-0,126.797118543405,37.5463410180897,
커피구멍가게,서울특별시 강서구 화곡로68길 36,서울특별시 강서구 등촌동 639-8 외1필지 에이스에이존 (지상1층) 107호,서울특별시 강서구 등촌동 639-8,126.85659302794,37.5585538483686,
아리스타커피,서울특별시 강서구 강서로56가길 53,서울특별시 강서구 등촌동 679-6 (지상 1층) ,서울특별시 강서구 등촌동 679-6,126.840192675211,37.5619273819344,
까페베네,서울특별시 강서구 양천로 366,서울특별시 강서구 가양동 105-3 외5필지 (지상 1층) ,서울특별시 강서구 가양동 105-3,126.842894199033,37.567229491149,
커피니 강서KT점,서울특별시 강서구 강서로5길 64,서울특별시 강서구 화곡동 893-1 지상1층 ,서울특별시 강서구 화곡동 893-1,126.848522952275,37.5295450415168,
스타일카페,서울특별시 강서구 강서로 46,서울특별시 강서구 화곡동 341-67 1층 ,서울특별시 강서구 화곡동 341-67,126.846991899422,37.5319863111285,
커피아마토르,서울특별시 강서구 강서로 462,서울특별시 강서구 등촌동 684-3 대룡드림타워-1 (지상 1층) 106~107호,서울특별시 강서구 등촌동 684-3,126.84141969758,37.5666239432247,
클로비스,서울특별시 강서구 방화동로 75,서울특별시 강서구 방화동 598-163 (지하 1층) ,서울특별시 강서구 방화동 598-163,126.812564382482,37.5671133349337,
소나 카페테라,서울특별시 강서구 강서로45길 45,서울특별시 강서구 화곡동 1008-11 (지상 1층) ,서울특별시 강서구 화곡동 1008-11,126.833625239839,37.5478725815796,
이마트24강서등마루점,서울특별시 강서구 등촌로51길 11,서울특별시 강서구 등촌동 526-1 (지상 1층) ,서울특별시 강서구 등촌동 526-1,126.862620187026,37.5488240280557,
하늘꿈북까페,서울특별시 강서구 강서로45라길 28,서울특별시 강서구 내발산동 720-1 (지상 1층) ,서울특별시 강서구 내발산동 720-1,126.834169352816,37.5490333815622,
카페 소금다방,서울특별시 강서구 공항대로61길 42,서울특별시 강서구 염창동 271-0 (지상1층) ,서울특별시 강서구 염창동 271-0,126.866384389736,37.5527246220818,
등촌빈스토리,서울특별시 강서구 공항대로41길 51,서울특별시 강서구 등촌동 696-0 세신그린코아 (지상1층) 129호,서울특별시 강서구 등촌동 696-0,126.845776312402,37.5602359798031,
이디야강서점,서울특별시 강서구 화곡로 292,서울특별시 강서구 화곡동 981-1 외 2필지 서광프리메라 (지상 1층) 104호,서울특별시 강서구 화곡동 981-1,126.848722796198,37.5501868292157,
이디야 개화산점,서울특별시 강서구 양천로 28,서울특별시 강서구 방화동 849-0 벽산에어트리움 (지상 1층) 본관동 101~103호,서울특별시 강서구 방화동 849-0,126.806994113323,37.5723030060453,
소풍가는날,서울특별시 강서구 공항대로59다길 85,서울특별시 강서구 염창동 267-19 (지상1층) ,서울특별시 강서구 염창동 267-19,126.868013117548,37.5518919500507,
칸토빈 가양점,서울특별시 강서구 화곡로 429,서울특별시 강서구 가양동 14-84 지하철9호선 가양역사내 지하 1층 ,서울특별시 강서구 가양동 14-84,126.855066268266,37.5615280646201,
시나브로빈스토리,서울특별시 강서구 공항대로42길 61,서울특별시 강서구 내발산동 661-26 내발산동주택 (지상 1층) ,서울특별시 강서구 내발산동 661-26,126.842867791629,37.5553354094764,
이디야강서사거리점,서울특별시 강서구 공항대로 437,서울특별시 강서구 등촌동 654-44 (지상 1층) ,서울특별시 강서구 등촌동 654-44,126.855918740576,37.5549542664078,
씨유 염창동아점,서울특별시 강서구 양천로 731,서울특별시 강서구 염창동 258-1 외 1필지 동아3차아파트 (지상 1층) 309동 102-1호,서울특별시 강서구 염창동 258-1,126.877396858267,37.5502517087995,
씨유 강서가로공원점,서울특별시 강서구 가로공원로 216,서울특별시 강서구 화곡동 368-3 1층 씨유마트 내 ,서울특별시 강서구 화곡동 368-3,126.839970771991,37.5372917339966,
카페보굼,서울특별시 강서구 등촌로 3,서울특별시 강서구 화곡동 782-5 부경빌딩 (지상 1층) ,서울특별시 강서구 화곡동 782-5,126.863536200042,37.5302843243461,
훼미리마트(등촌평안점),서울특별시 강서구 강서로 460,서울특별시 강서구 등촌동 682-0 평안빌딩 (지상 1층) 훼미리마트 내 102~105호,서울특별시 강서구 등촌동 682-0,126.841129472317,37.5663068532685,
커피올렌스,서울특별시 강서구 방화대로34길 70,서울특별시 강서구 방화동 187-47 지상1층 ,서울특별시 강서구 방화동 187-47,126.820358588612,37.5705080554905,
데일리카페,서울특별시 강서구 양천로71길 14,서울특별시 강서구 염창동 248-8 (지상 1층) 가동 ,서울특별시 강서구 염창동 248-8,126.871526109894,37.5523335292722,
더카페강서NC9층점,서울특별시 강서구 강서로56길 17,서울특별시 강서구 등촌동 689 엔씨백화점 9층 ,서울특별시 강서구 등촌동 689,126.840498784915,37.559933531546,
이디야등촌3동점,서울특별시 강서구 공항대로41길 34,서울특별시 강서구 등촌동 700-0 플러스존 (지상 1층) 101호,서울특별시 강서구 등촌동 700-0,126.84571196058,37.5592796685251,
요거프래소화곡푸르지오,서울특별시 강서구 강서로45길 49-4,서울특별시 강서구 내발산동 714-4 태승훼미리아파트 (지상 1층) 상가동 7호,서울특별시 강서구 내발산동 714-4,126.832971913548,37.547790569435,
디바인그라인드,서울특별시 강서구 하늘길 38,서울특별시 강서구 방화동 886-0 외 6필지 김포공항스카이파크 (지하 2층) ,서울특별시 강서구 방화동 886-0,126.80296035927,37.5713698504776,
(주)영우 롯데백화점 김포공항점,서울특별시 강서구 하늘길 38,서울특별시 강서구 방화동 886-0 외 6필지 김포공항 스카이파크 (지하 3층) ,서울특별시 강서구 방화동 886-0,126.80296035927,37.5713698504776,
애프터커피 after coffee,서울특별시 강서구 방화대로45길 70,서울특별시 강서구 방화동 452-2 (지상 1층) ,서울특별시 강서구 방화동 452-2,126.812528488455,37.5744343952012,
페이퍼 존,서울특별시 강서구 하늘길 76,서울특별시 강서구 과해동 676-0 이마트 3층 ,서울특별시 강서구 과해동 676-0,126.798295819605,37.5609244915689,
치프빈(Chief Bean),서울특별시 강서구 화곡로 347,서울특별시 강서구 화곡동 1095-0 그랜드아이파크 (지상 1층) 117호,서울특별시 강서구 화곡동 1095-0,126.85129237152,37.5548351849155,
이디야 커피(화곡사거리점),서울특별시 강서구 곰달래로 135,서울특별시 강서구 화곡동 342-53 (지상 1층) ,서울특별시 강서구 화곡동 342-53,126.847921657041,37.5307647642885,
지에스(gs)25 화곡영광점내,서울특별시 강서구 곰달래로 88,서울특별시 강서구 화곡동 920-1 ,서울특별시 강서구 화곡동 920-1,126.842646371479,37.5301640940002,
방화동커피집,서울특별시 강서구 방화대로 319,서울특별시 강서구 방화동 867 ,서울특별시 강서구 방화동 867,126.816286169261,37.5691581356766,
지에스25방화동부점,서울특별시 강서구 방화대로45길 52,서울특별시 강서구 방화동 448-42 1층 GS25편의점 내 ,서울특별시 강서구 방화동 448-42,126.813655995614,37.5743825712377,
까페일루시온,서울특별시 강서구 화곡로61길 31,서울특별시 강서구 등촌동 660-9 (지상 1층) ,서울특별시 강서구 등촌동 660-9,126.849978535371,37.5573283828787,
데이빈,서울특별시 강서구 하늘길 38,서울특별시 강서구 방화동 886 ,서울특별시 강서구 방화동 886,126.80296035927,37.5713698504776,
이디야 등촌역점,서울특별시 강서구 등촌로 217,서울특별시 강서구 등촌동 509-1 (지상 1층) ,서울특별시 강서구 등촌동 509-1,126.863315147109,37.5491824406556,
카페 넬 비코로(Cafe nel vicolo),서울특별시 강서구 공항대로42길 16,서울특별시 강서구 내발산동 650-16 (지상 1층) ,서울특별시 강서구 내발산동 650-16,126.843609294059,37.5572344334833,
카페 르꼼뚜,서울특별시 강서구 양천로 551-17,서울특별시 강서구 가양동 449-4 외 2필지 한화비즈메트로1차 (지상 1차) 103호,서울특별시 강서구 가양동 449-4,126.860941198154,37.5591095584309,
카페레아(CAFE RHEA),서울특별시 강서구 방화대로48길 40,"서울특별시 강서구 방화동 839 방화2-1단지 임대상가, 3동 104호",서울특별시 강서구 방화동 839,126.820167131755,37.5742448164247,
서울강서지역자활센터-카페,서울특별시 강서구 곰달래로 180,서울특별시 강서구 화곡동 874-9 서울강서지역자활센터 1층 ,서울특별시 강서구 화곡동 874-9,126.852949748255,37.5308851086011,
카페두드림,서울특별시 강서구 곰달래로 224,서울특별시 강서구 화곡동 848-1 (지상 1층) ,서울특별시 강서구 화곡동 848-1,126.857846645433,37.5315273910695,
레즐리 컵 LESELY CUP,서울특별시 강서구 양천로73길 24,서울특별시 강서구 염창동 306-0 염창힐스테이트 (지상 1층) 상가동 105호,서울특별시 강서구 염창동 306-0,126.873334288827,37.5516148649568,
비스트롱커피,서울특별시 강서구 양천로24길 85,서울특별시 강서구 방화동 251-5 (지상 1층) ,서울특별시 강서구 방화동 251-5,126.81545275173,37.5694673184597,
대한항공OC빌딩 스카이카페,서울특별시 강서구 하늘길 260,서울특별시 강서구 공항동 1370-0 외 14필지 항공기정비공장 (지상 4층) ,서울특별시 강서구 공항동 1370-0,126.814283153043,37.5477458060624,
마스 모스,서울특별시 강서구 강서로 499,서울특별시 강서구 가양동 187-13 대하빌딩 (지상 1층) 103~104호,서울특별시 강서구 가양동 187-13,126.841351215765,37.5701471011703,
융드립커피,서울특별시 강서구 우장산로 4,서울특별시 강서구 내발산동 669-6 (지상 1층) ,서울특별시 강서구 내발산동 669-6,126.837649247498,37.5546666572146,
커피왓수다,서울특별시 강서구 화곡로31길 67,서울특별시 강서구 화곡동 1030-11 지상1층 ,서울특별시 강서구 화곡동 1030-11,126.839601185614,37.5443410989862,
카페말로(내발산점),서울특별시 강서구 강서로 353,서울특별시 강서구 내발산동 654-3 학성빌딩 (지상 1층) 104호,서울특별시 강서구 내발산동 654-3,126.837469500195,37.5573380451007,
카페 101,서울특별시 강서구 공항대로3길 33,서울특별시 강서구 공항동 45-8 (지상 1층) ,서울특별시 강서구 공항동 45-8,126.810347175575,37.5631047816186,
버블베어,서울특별시 강서구 금낭화로 167,서울특별시 강서구 방화동 819-0 1층 103호,서울특별시 강서구 방화동 819-0,126.813373127209,37.5809502733256,
목 카페,서울특별시 강서구 금낭화로24길 29-5,서울특별시 강서구 방화동 345-9 (지상 1층) ,서울특별시 강서구 방화동 345-9,126.814688952941,37.5785891325307,
밀알카페,서울특별시 강서구 강서로33길 16,서울특별시 강서구 화곡동 1050-31 1층 ,서울특별시 강서구 화곡동 1050-31,126.838804926277,37.5420181413298,
엔카페,서울특별시 강서구 양천로 476,서울특별시 강서구 등촌동 73-1 금부빌딩 (지상 2층) ,서울특별시 강서구 등촌동 73-1,126.853271958466,37.5616001805127,
브이커피,서울특별시 강서구 화곡로64길 98,"서울특별시 강서구 등촌동 653-5 1층, 1동 ",서울특별시 강서구 등촌동 653-5,126.858154462401,37.5553132276399,
커피드림,서울특별시 강서구 공항대로53가길 6,서울특별시 강서구 등촌동 643-73 (지상 1층) ,서울특별시 강서구 등촌동 643-73,126.859568389364,37.5543185051601,
커피볶는 곤이네집,서울특별시 강서구 곰달래로 116-1,서울특별시 강서구 화곡동 899-29 엠타워 (지상 1층) 101호,서울특별시 강서구 화곡동 899-29,126.845870105726,37.5303526899735,
이디야커피,서울특별시 강서구 양천로 684,서울특별시 강서구 염창동 264-37 1층 ,서울특별시 강서구 염창동 264-37,126.871949201268,37.5506405637499,
발음북카페,서울특별시 강서구 강서로47다길 35,서울특별시 강서구 내발산동 709-8 1층 ,서울특별시 강서구 내발산동 709-8,126.834311613672,37.5513274307329,
이디야커피,서울특별시 강서구 방화동로 37,서울특별시 강서구 방화동 614-34 101호,서울특별시 강서구 방화동 614-34,126.810682079138,37.5641822785808,
쑤앤쑤,서울특별시 강서구 우장산로 4,서울특별시 강서구 내발산동 669-6 (지상3층) ,서울특별시 강서구 내발산동 669-6,126.837649247498,37.5546666572146,
씨앤에프(C&F by Jung),서울특별시 강서구 강서로 202,서울특별시 강서구 화곡동 1031-0 1층 ,서울특별시 강서구 화곡동 1031-0,126.838269929243,37.5442227840847,
카페원데이,서울특별시 강서구 강서로48길 6,서울특별시 강서구 내발산동 702-1 1층 ,서울특별시 강서구 내발산동 702-1,126.836879510476,37.5525105917346,
카페드아야,서울특별시 강서구 강서로52길 13,서울특별시 강서구 내발산동 646-2 1층 ,서울특별시 강서구 내발산동 646-2,126.839007580072,37.55790895136,
카페 이브닝,서울특별시 강서구 양천로75길 57,서울특별시 강서구 염창동 288-0 현대1차 상가동 108호,서울특별시 강서구 염창동 288-0,126.874890556801,37.5533141837481,
커피스토리,서울특별시 강서구 등촌로13길 24,서울특별시 강서구 등촌동 572-17 (지상 1층) ,서울특별시 강서구 등촌동 572-17,126.861942122591,37.5356252238378,
이디야커피가양역점,서울특별시 강서구 양천로 500,서울특별시 강서구 등촌동 628-0 노블리움오피스텔 (지상 1층) 111호,서울특별시 강서구 등촌동 628-0,126.855531211014,37.5605371784027,
더팬,서울특별시 강서구 금낭화로17길 9,서울특별시 강서구 방화동 454-17 외 2필지 (지상 1층) ,서울특별시 강서구 방화동 454-17,126.811066524664,37.5751358304399,
이디야 염창블루나인,서울특별시 강서구 양천로 583,서울특별시 강서구 염창동 240-21 외 1필지 우림블루나인비즈니스센터 117호,서울특별시 강서구 염창동 240-21,126.864347419732,37.5571161918617,
모카라비아,서울특별시 강서구 개화동로27가길 33,서울특별시 강서구 방화동 619-7 1층 102호,서울특별시 강서구 방화동 619-7,126.807522731364,37.5627209818902,
이디야커피(강서한강자이),서울특별시 강서구 양천로 401,서울특별시 강서구 가양동 1498-0 강서한강자이타워 (지상 1층) B동 108호,서울특별시 강서구 가양동 1498-0,126.84764409296,37.5657010514328,
차콜로스터커피,서울특별시 강서구 까치산로4길 66,서울특별시 강서구 화곡동 102-46 (지상 1층) ,서울특별시 강서구 화곡동 102-46,126.846071445392,37.5402261092807,
라루라루,서울특별시 강서구 공항대로59길 42,서울특별시 강서구 등촌동 647-0 1층 ,서울특별시 강서구 등촌동 647-0,126.863762911324,37.5535482014372,
제나두PC 강서본점,서울특별시 강서구 양천로 583,서울특별시 강서구 염창동 240-21 외 1필지 우림블루나인 (지하 1층) B동 106호,서울특별시 강서구 염창동 240-21,126.864347419732,37.5571161918617,
테리브라운,서울특별시 강서구 공항대로8길 33,서울특별시 강서구 공항동 41-80 (지상 1층) 101호,서울특별시 강서구 공항동 41-80,126.812398219646,37.5595748947978,
카페 머무르다,서울특별시 강서구 공항대로 663,서울특별시 강서구 염창동 260-7 골든서울호텔 (지상 1층) ,서울특별시 강서구 염창동 260-7,126.878116558334,37.5479085073574,
티톡커피전문점,서울특별시 강서구 월정로 142,서울특별시 강서구 화곡동 360-9 1층 ,서울특별시 강서구 화곡동 360-9,126.837482048405,37.531750609637,
카페 머물다,서울특별시 강서구 양천로 401,서울특별시 강서구 가양동 1498-0 강서한강자이타워 (지상 1층) A동 416호,서울특별시 강서구 가양동 1498-0,126.84764409296,37.5657010514328,
아쿠아카페,서울특별시 강서구 공항대로45길 44,서울특별시 강서구 등촌동 641-11 청림빌딩 (지상 2층) 207호,서울특별시 강서구 등촌동 641-11,126.855808218309,37.5568092839784,
커피보니또 등촌점,서울특별시 강서구 양천로60길 19,서울특별시 강서구 등촌동 630-6 (지상 1층) ,서울특별시 강서구 등촌동 630-6,126.859201980496,37.5577255487923,
까르페디엠배세일움,서울특별시 강서구 공항대로 209,서울특별시 강서구 마곡동 774-1 101호,서울특별시 강서구 마곡동 774-1,126.830889417254,37.5597527538278,
이디야 송정역점,서울특별시 강서구 공항대로 24,서울특별시 강서구 공항동 53-1 2층 ,서울특별시 강서구 공항동 53-1,126.809951413051,37.5611712399241,
카페테이크(Cafe TAKE),서울특별시 강서구 양천로26길 35,서울특별시 강서구 방화동 180-22 (지상 1층) ,서울특별시 강서구 방화동 180-22,126.819063084751,37.5726035911318,
푸른풀밭(Green Pastures),서울특별시 강서구 방화대로21길 50,서울특별시 강서구 공항동 19-16 (지상 1층) ,서울특별시 강서구 공항동 19-16,126.813831545017,37.5633873833785,
알랑가,서울특별시 강서구 강서로 318-8,서울특별시 강서구 내발산동 677-1 두리빌딩 (지상 1층) 104호,서울특별시 강서구 내발산동 677-1,126.837448093952,37.5541150604746,
이디아(화곡중앙시장점),서울특별시 강서구 가로공원로76길 61,"서울특별시 강서구 화곡동 362-83 (지상 1층) 101, 107호 ",서울특별시 강서구 화곡동 362-83,126.838267216211,37.5344254054077,
방화동커피볶는집,서울특별시 강서구 금낭화로16길 28,서울특별시 강서구 방화동 451-11 동진빌딩 (지상 1층) ,서울특별시 강서구 방화동 451-11,126.81296482907,37.5738671009964,
레드블랙(등촌점),서울특별시 강서구 공항대로41길 43,서울특별시 강서구 등촌동 696-1 새한프라자 (지상 1층) 102호,서울특별시 강서구 등촌동 696-1,126.845540896294,37.5599073490843,
노리공작소,서울특별시 강서구 강서로62길 98,서울특별시 강서구 등촌동 695-1 (지상 3층) ,서울특별시 강서구 등촌동 695-1,126.845014067467,37.5616988297823,
이디야 강서NC점,서울특별시 강서구 강서로54길 11,서울특별시 강서구 등촌동 674-2 (지상 1층) 가동 ,서울특별시 강서구 등촌동 674-2,126.839349532387,37.5594168739297,
샤론,서울특별시 강서구 방화동로14길 13,서울특별시 강서구 방화동 249-0 (지상 1층) ,서울특별시 강서구 방화동 249-0,126.813596599735,37.5691907703569,
이디야커피 마곡수명산점,서울특별시 강서구 수명로 68-27,서울특별시 강서구 내발산동 750-9 웨스트엔드문화센터 (지상 1층) 103~104호,서울특별시 강서구 내발산동 750-9,126.826675489517,37.552676073225,
이디야커피 곰달래점,서울특별시 강서구 곰달래로 52,서울특별시 강서구 화곡동 938-18 1층 ,서울특별시 강서구 화곡동 938-18,126.838583156306,37.5299403880104,
긱스커피(GEEK'S COFFEE),서울특별시 강서구 화곡로24길 47,서울특별시 강서구 화곡동 381-12 (지상1층) ,서울특별시 강서구 화곡동 381-12,126.839251861503,37.5390227486796,
라떼앤퐁당,서울특별시 강서구 공항대로53가길 42,서울특별시 강서구 등촌동 643-51 1층 102호,서울특별시 강서구 등촌동 643-51,126.858818165927,37.5552232026165,
호텔볼(VOLL) 커피숍,서울특별시 강서구 강서로5나길 30,서울특별시 강서구 화곡동 905-8 지상2층 ,서울특별시 강서구 화곡동 905-8,126.846622513165,37.5287775488972,
메타킹 양천향교역점,서울특별시 강서구 강서로 462,서울특별시 강서구 등촌동 684-3 대룡드림타워 (지상 1층) 104호,서울특별시 강서구 등촌동 684-3,126.84140274432,37.5666120273171,
더착한커피 화곡점,서울특별시 강서구 가로공원로 191,서울특별시 강서구 화곡동 379-48 류성빌딩 (지상 1층) 101호 일부 ,서울특별시 강서구 화곡동 379-48,126.837150022899,37.5374069899716,
바게뜨니,서울특별시 강서구 공항대로41길 18,서울특별시 강서구 등촌동 663-23 (지상 1층) ,서울특별시 강서구 등촌동 663-23,126.845148298972,37.5586378717677,
요거프레소 화곡점,서울특별시 강서구 초록마을로 155,서울특별시 강서구 화곡동 332-27 (지상 1층) ,서울특별시 강서구 화곡동 332-27,126.847418893608,37.5363120243167,
커피베이 마곡나루점,서울특별시 강서구 마곡서로 133-0,서울특별시 강서구 마곡동 734-4 마곡엠밸리7단지 (지상 1층) 712동 103호,서울특별시 강서구 마곡동 734-4,126.823838667719,37.5645561030039,
카페29,서울특별시 강서구 강서로 242,서울특별시 강서구 화곡동 1165-1 강서힐스테이트 (지상 1층) 상가동 129호,서울특별시 강서구 화곡동 1165-1,126.836797010994,37.5471644988463,
가까운카페,서울특별시 강서구 강서로35길 12,"서울특별시 강서구 화곡동 1033-34 1층우측, 3동 ",서울특별시 강서구 화곡동 1033-34,126.838230228891,37.5429054698537,
카페노킹온,서울특별시 강서구 등촌로39길 56,서울특별시 강서구 등촌동 521-22 거산 하이빌 (지상 1층) 101호,서울특별시 강서구 등촌동 521-22,126.860059722776,37.5469043280436,
토스트커피,서울특별시 강서구 마곡서1로 100,서울특별시 강서구 마곡동 743 (지상 1층) 601동 상가104호,서울특별시 강서구 마곡동 743,126.81962341197,37.5657540981707,
띠아모커피 강서구청사거리점,서울특별시 강서구 공항대로45가길 11,서울특별시 강서구 등촌동 656-52 강서메트로칸 103~105호 ,서울특별시 강서구 등촌동 656-52,126.853677792942,37.5560635209115,
카페 카린,서울특별시 강서구 양천로 488,서울특별시 강서구 등촌동 77-20 (지상 1층) ,서울특별시 강서구 등촌동 77-20,126.854455764961,37.5612356612072,
이디야 방화사거리점,서울특별시 강서구 양천로 72,서울특별시 강서구 방화동 569-12 해성빌딩 (지상 1층) 106~107호 ,서울특별시 강서구 방화동 569-12,126.811777075121,37.5732116324409,
앙꼬(Anko),서울특별시 강서구 공항대로36길 73,서울특별시 강서구 내발산동 667 문성빌라 ,서울특별시 강서구 내발산동 667,126.836589431127,37.5552703046369,
톡앤티(Talk&Tea),서울특별시 강서구 강서로45가길 10,"서울특별시 강서구 화곡동 1007-4 지상3층, 3동 ",서울특별시 강서구 화곡동 1007-4,126.835374437229,37.5474870635534,
강서지역자활센터 더치숲,서울특별시 강서구 곰달래로59길 67,서울특별시 강서구 화곡동 773-1 외 1필지 대림빌딩 (지상 1층) ,서울특별시 강서구 화곡동 773-1,126.862655449678,37.5354010758952,
탐앤탐스 목동사거리점,서울특별시 강서구 등촌로 19,서울특별시 강서구 화곡동 781-4 (지상 2층) ,서울특별시 강서구 화곡동 781-4,126.863480151296,37.5317376638256,
이디야 화곡로점,서울특별시 강서구 화곡로 133,서울특별시 강서구 화곡동 1067-20 (지상 2층) ,서울특별시 강서구 화곡동 1067-20,126.83649036711,37.5408336595688,
커피베이(강서힐스테이트점),서울특별시 강서구 강서로 242,서울특별시 강서구 화곡동 1165-1 강서힐스테이트 (지상 1층) 상가동 131호,서울특별시 강서구 화곡동 1165-1,126.836797010994,37.5471644988463,
공차,서울특별시 강서구 마곡중앙로 165,서울특별시 강서구 마곡동 757-5 안강프라이빗타워 (지상 1층) 110호,서울특별시 강서구 마곡동 757-5,126.827697450113,37.5685808655445,
카페푸릇,서울특별시 강서구 화곡로13길 119,서울특별시 강서구 화곡동 1015-4 (지상1층) ,서울특별시 강서구 화곡동 1015-4,126.833592293322,37.5448765364523,
커피메소딕(COFFEE METHODIC),서울특별시 강서구 마곡서1로 146,서울특별시 강서구 마곡동 735 마곡엠밸리2단지 상가동 105호,서울특별시 강서구 마곡동 735,126.821411028637,37.5688249730513,
아마스빈 버블티 우장산역점,서울특별시 강서구 강서로45길 34-2,서울특별시 강서구 내발산동 722-14 (지상 1층) ,서울특별시 강서구 내발산동 722-14,126.834270936594,37.5480790071982,
셀렉토커피(등촌점),서울특별시 강서구 등촌로39길 19,서울특별시 강서구 등촌동 514-9 (지상 1층) ,서울특별시 강서구 등촌동 514-9,126.861110309959,37.5456200239738,
메가엠지씨커피 화곡본동시장점,서울특별시 강서구 까치산로4길 3,서울특별시 강서구 화곡동 98-60 1층 ,서울특별시 강서구 화곡동 98-60,126.844138758277,37.5424936410225,
커피집 화곡동,서울특별시 강서구 강서로41길 45,서울특별시 강서구 화곡동 1020-0 지상1층 ,서울특별시 강서구 화곡동 1020-0,126.835438229115,37.5440521870888,
280커피로스터스,서울특별시 강서구 양천로75길 7,서울특별시 강서구 염창동 250-27 (지상 1층) ,서울특별시 강서구 염창동 250-27,126.875078430929,37.5501203459623,
카페 화곡동,서울특별시 강서구 화곡로13길 26,서울특별시 강서구 화곡동 1043-1 1층 ,서울특별시 강서구 화곡동 1043-1,126.833522966186,37.5410426898322,
로뎀카페,서울특별시 강서구 강서로15길 37,서울특별시 강서구 화곡동 346-46 (지상1층) ,서울특별시 강서구 화곡동 346-46,126.844226102514,37.5318921448203,
공차 화곡역점,서울특별시 강서구 화곡로 142,서울특별시 강서구 화곡동 1073-10 외 12필지 메가박스 (지상 1층) 107호,서울특별시 강서구 화곡동 1073-10,126.837581836675,37.5405665780291,
카페 벨라노이,서울특별시 강서구 금낭화로 287-50,서울특별시 강서구 방화동 829-0 지상1층 오피앙2오피스텔 119호,서울특별시 강서구 방화동 829-0,126.812476406664,37.5783653457703,
카페숨,서울특별시 강서구 공항대로39길 7,서울특별시 강서구 등촌동 669-2 (지상1층) ,서울특별시 강서구 등촌동 669-2,126.843298928507,37.5586032661969,
봉제산 아래 커피집,서울특별시 강서구 등촌로13자길 74,서울특별시 강서구 화곡동 1140-0 태영방송인아파트 (지상 1층) 상가동 104~105호,서울특별시 강서구 화곡동 1140-0,126.853282703664,37.5375867111098,
커피볶는 남자,서울특별시 강서구 공항대로 6,서울특별시 강서구 공항동 434-2 외 3필지 (지상 1층) ,서울특별시 강서구 공항동 434-2,126.807971648203,37.5612547122954,
빽다방 방화사거리점,서울특별시 강서구 금낭화로 91-2,서울특별시 강서구 방화동 483-5 1동 106호,서울특별시 강서구 방화동 483-5,126.811081371114,37.5736503862521,
커피베이 방화역점,서울특별시 강서구 금낭화로 128,서울특별시 강서구 방화동 830-2 하이포트 114호,서울특별시 강서구 방화동 830-2,126.812685159793,37.5765585554781,
아쿠아리어스 커피(Aquarius Coffee),서울특별시 강서구 가로공원로76길 106,서울특별시 강서구 화곡동 359-86 1층 ,서울특별시 강서구 화곡동 359-86,126.838961957584,37.5325592123623,
요거프레소 양천향교점,서울특별시 강서구 허준로 16,서울특별시 강서구 가양동 1458-7 (지상1층) ,서울특별시 강서구 가양동 1458-7,126.84346068548,37.5703291249212,
그레이,서울특별시 강서구 화곡로31길 82,서울특별시 강서구 화곡동 1029-42 (지상 1층) ,서울특별시 강서구 화곡동 1029-42,126.838802113729,37.5444806567208,
꿈뜨락북카페,서울특별시 강서구 공항대로 615,서울특별시 강서구 염창동 281-25 강서꿈꾸는어린이도서관 ,서울특별시 강서구 염창동 281-25,126.873319234701,37.5473371806653,
브런치팩토리,서울특별시 강서구 마곡중앙로 36,서울특별시 강서구 마곡동 751 마곡엠밸리15단지 1층 상가동 102-1호,서울특별시 강서구 마곡동 751,126.827029271898,37.5574187175366,
헤르지움 팜,서울특별시 강서구 화곡로 191,서울특별시 강서구 화곡동 1060-30 (지상 1층) ,서울특별시 강서구 화곡동 1060-30,126.842277124123,37.5429376140488,
다시스 37호점,서울특별시 강서구 등촌로13길 35,서울특별시 강서구 화곡동 808-18 지상1층 ,서울특별시 강서구 화곡동 808-18,126.861290416211,37.5353813703579,
모리아스토리(Moriah Story),서울특별시 강서구 방화대로34길 80,서울특별시 강서구 방화동 187-14 (지상 2층) ,서울특별시 강서구 방화동 187-14,126.820885311657,37.57073518555,
마리웨일마카롱 발산역점,서울특별시 강서구 강서로56가길 41,서울특별시 강서구 등촌동 678-2 민경빌딩 (지상 1층) ,서울특별시 강서구 등촌동 678-2,126.840033905312,37.5614388272114,
마리웨일마카롱 등촌역점,서울특별시 강서구 공항대로61길 10,서울특별시 강서구 염창동 274-0 (지상1층) ,서울특별시 강서구 염창동 274-0,126.865477022247,37.5514526447121,
만나의 집,서울특별시 강서구 화곡로 375,서울특별시 강서구 등촌동 131 경향교회 1층 강당동 ,서울특별시 강서구 등촌동 131,126.852445711471,37.5573603238163,
커피레터,서울특별시 강서구 곰달래로53길 99,서울특별시 강서구 화곡동 469-12 1층 ,서울특별시 강서구 화곡동 469-12,126.856758181269,37.5355353468615,
코너커피,서울특별시 강서구 강서로 254,서울특별시 강서구 화곡동 1159-1 우장산아이파크이편한세상 1층 상가동 101호,서울특별시 강서구 화곡동 1159-1,126.836714122498,37.5484347011443,
커피퐁당,서울특별시 강서구 가로공원로 218,서울특별시 강서구 화곡동 367-1 (지상1층) ,서울특별시 강서구 화곡동 367-1,126.840244546869,37.5373625628396,
헤르츠 인타임카페(Hz inTime Cafe),서울특별시 강서구 강서로 411,서울특별시 강서구 마곡동 793-3 마곡에비앙 1층 110호,서울특별시 강서구 마곡동 793-3,126.839010860704,37.5623808692994,
빽다방 우장산역점,서울특별시 강서구 강서로 245,서울특별시 강서구 화곡동 1006-3 (지상1층) ,서울특별시 강서구 화곡동 1006-3,126.836009653258,37.5475711095543,
카페엔드,서울특별시 강서구 금낭화로23길 8,서울특별시 강서구 방화동 817-0 동성아파트상가 (지상 1층) 103호,서울특별시 강서구 방화동 817-0,126.81259277311,37.5794087000437,
셀렉토커피(등촌성당점),서울특별시 강서구 화곡로63길 133,서울특별시 강서구 등촌동 663-3 1층 ,서울특별시 강서구 등촌동 663-3,126.84564881658,37.5588359354426,
아지트(AGIT),서울특별시 강서구 강서로 468,"서울특별시 강서구 등촌동 684-1 테크노타워(지상 1층) , 101호(일부) ",서울특별시 강서구 등촌동 684-1,126.841489818891,37.5671848166792,
쥬씨,서울특별시 강서구 화곡로 143,서울특별시 강서구 화곡동 1066-10 지상 1층 105호,서울특별시 강서구 화곡동 1066-10,126.83762776249,37.5411467043016,
토프레소 까치산점,서울특별시 강서구 강서로18길 26,서울특별시 강서구 화곡동 340-5 ,서울특별시 강서구 화곡동 340-5,126.847150054804,37.5338767243643,
아리아 커피,서울특별시 강서구 강서로52길 42,서울특별시 강서구 내발산동 651 (지상1층) ,서울특별시 강서구 내발산동 651,126.840431525818,37.5575594056875,
카페모니에,서울특별시 강서구 공항대로59다길 227,서울특별시 강서구 염창동 263-13 1층 ,서울특별시 강서구 염창동 263-13,126.874761650471,37.5485156032162,
더베스트커피,서울특별시 강서구 강서로 506,서울특별시 강서구 가양동 1458 1층 B동 4호,서울특별시 강서구 가양동 1458,126.841933133618,37.5704780061189,
템포커피 발산역점,서울특별시 강서구 공항대로 280,서울특별시 강서구 내발산동 645-1 1층 ,서울특별시 강서구 내발산동 645-1,126.838431360202,37.5580304294577,
감성커피 가양점,서울특별시 강서구 양천로 401,서울특별시 강서구 가양동 1498-0 강서한강자이타워 (지상 1층) A동 110호,서울특별시 강서구 가양동 1498-0,126.84764409296,37.5657010514328,
빽다방 등촌성당점,서울특별시 강서구 공항대로41길 51,서울특별시 강서구 등촌동 696-0 세신그린코아 (지상 1층) 101~102호,서울특별시 강서구 등촌동 696-0,126.845776312402,37.5602359798031,
메리하하(Merry Haha),서울특별시 강서구 강서로33길 32,서울특별시 강서구 화곡동 1049-47 1층 ,서울특별시 강서구 화곡동 1049-47,126.838033994137,37.5417140805556,
커피베이 강서공항점,서울특별시 강서구 방화동로 57,서울특별시 강서구 방화동 606-103 1~2층 ,서울특별시 강서구 방화동 606-103,126.8119870825,37.565682808669,
이디아 신방화중앙점,서울특별시 강서구 방화대로34길 92,서울특별시 강서구 방화동 193-11 불해빌딩 (방화 1동) 103~104호 ,서울특별시 강서구 방화동 193-11,126.821451112442,37.5708583976379,
빽다방-마곡역GMG점,서울특별시 강서구 마곡중앙6로 16,서울특별시 강서구 마곡동 773-2 마곡지엠지타워 116호,서울특별시 강서구 마곡동 773-2,126.829006208171,37.5604015515818,
Caffe Attico(카페아티코),서울특별시 강서구 강서로 419,서울특별시 강서구 마곡동 793-0 가양1동 ,서울특별시 강서구 마곡동 793-0,126.839209217691,37.5629853472673,
베일리 베이킹스튜디오&카페,서울특별시 강서구 양천로11길 31,서울특별시 강서구 방화동 486-44 (방화1동) ,서울특별시 강서구 방화동 486-44,126.809632553347,37.5745691444841,
리퍼블릭오브커피,서울특별시 강서구 강서로 391,서울특별시 강서구 마곡동 794-0 문영비지웍스 (지상 1층) 111호,서울특별시 강서구 마곡동 794-0,126.838427628497,37.5605448342463,
커피마마 화곡역점,서울특별시 강서구 강서로 210,"서울특별시 강서구 화곡동 1026-5 우장산동, 상광빌딩 1층 ",서울특별시 강서구 화곡동 1026-5,126.837700732921,37.5448063005815,
메가커피 발산역점,서울특별시 강서구 강서로 380,서울특별시 강서구 등촌동 674-0 세민빌딩 (지상 1층) ,서울특별시 강서구 등촌동 674-0,126.838871233507,37.5594710027215,
로스팅포인트,서울특별시 강서구 곰달래로31가길 34,서울특별시 강서구 화곡동 871-58 (화곡2동) ,서울특별시 강서구 화곡동 871-58,126.853243478138,37.5320254198625,
필레오,서울특별시 강서구 금낭화로23길 8,서울특별시 강서구 방화동 817 (방화3동) 206~7호,서울특별시 강서구 방화동 817,126.81259277311,37.5794087000437,
썸주스(SSUM JUICE),서울특별시 강서구 공항대로 140,서울특별시 강서구 마곡동 746-1 마곡엠밸리12단지 (지상 1층) 판매시설1동 102-1호,서울특별시 강서구 마곡동 746-1,126.823388809057,37.5592565859994,
몽슈크레(MON SUCRE),서울특별시 강서구 마곡중앙6로 45,서울특별시 강서구 마곡동 772-5 리더스퀘어마곡 1층 105호,서울특별시 강서구 마곡동 772-5,126.832720625607,37.5606312206415,
커피 101 스트릿 강서자이타워점,서울특별시 강서구 양천로 401,서울특별시 강서구 가양동 1498-0 강서한강자이타워 (지상 1층) B동 109호,서울특별시 강서구 가양동 1498-0,126.84764409296,37.5657010514328,
타르데마 베이커리,서울특별시 강서구 강서로46길 9,서울특별시 강서구 내발산동 702-22 (우장산동) 1호,서울특별시 강서구 내발산동 702-22,126.836942560718,37.5508932986207,
베이커리 & 커피 몽소,서울특별시 강서구 공항대로41길 52,서울특별시 강서구 등촌동 699-1 (지상 1층) ,서울특별시 강서구 등촌동 699-1,126.846209280257,37.5600452630994,
유로시안,서울특별시 강서구 방화대로5길 7,서울특별시 강서구 공항동 1340-5 (지상 1층) ,서울특별시 강서구 공항동 1340-5,126.815866765674,37.5547717385655,
로지,서울특별시 강서구 공항대로45나길 41,서울특별시 강서구 등촌동 655-21 (등촌1동) ,서울특별시 강서구 등촌동 655-21,126.8562897052,37.5561996259063,
명랑핫도그 화곡중앙시장점,서울특별시 강서구 월정로30길 31,서울특별시 강서구 화곡동 373-13 (화곡1동) ,서울특별시 강서구 화곡동 373-13,126.837684371692,37.5343975757579,
떼루와 까치산역점,서울특별시 강서구 강서로 49,서울특별시 강서구 화곡동 343-2 (화곡1동) ,서울특별시 강서구 화곡동 343-2,126.846196202047,37.5321512418068,
카페뚜또(CafeTutto),서울특별시 강서구 강서로 423,서울특별시 강서구 마곡동 784-13 아르디에 (지상 1층) 112호,서울특별시 강서구 마곡동 784-13,126.839361465026,37.5635059695343,
커피박스 커피전문점,서울특별시 강서구 개화동로27가길 1,서울특별시 강서구 방화동 613-26 (지상 1층) ,서울특별시 강서구 방화동 613-26,126.806992056142,37.5641072876076,
커피시그널(COFFEE SIGNAL),서울특별시 강서구 초록마을로 39,서울특별시 강서구 화곡동 53-9 ,서울특별시 강서구 화곡동 53-9,126.847132443182,37.5427813690313,
리스펙 커피,서울특별시 강서구 마곡서1로 115-1,서울특별시 강서구 마곡동 739-4 마곡헤리움1차 (지상 1층) 114호,서울특별시 강서구 마곡동 739-4,126.818571159801,37.5667077205368,
레드카페,서울특별시 강서구 곰달래로57길 23-11,"서울특별시 강서구 화곡동 803-23 1층, 4동 ",서울특별시 강서구 화곡동 803-23,126.861133613309,37.5332996053501,
쥬씨(가양점),서울특별시 강서구 양천로 500,서울특별시 강서구 등촌동 628-0 노블리움오피스텔 (지상 1층) 103호,서울특별시 강서구 등촌동 628-0,126.855531211014,37.5605371784027,
할머니가래떡볶이,서울특별시 강서구 양천로 657,서울특별시 강서구 염창동 246-17 서현빌딩 (지상 1층) 101호,서울특별시 강서구 염창동 246-17,126.870409721331,37.5526491000133,
호두파이 이야기,서울특별시 강서구 마곡서로 152,서울특별시 강서구 마곡동 759-1 두산더랜드타워 (지상 3층) A320호,서울특별시 강서구 마곡동 759-1,126.82597944995,37.5676859104888,
죽앤카페,서울특별시 강서구 공항대로 315,서울특별시 강서구 등촌동 669-1 ,서울특별시 강서구 등촌동 669-1,126.842791205411,37.5584986162827,
마리웨일 마카롱 화곡역점,서울특별시 강서구 가로공원로76길 17,서울특별시 강서구 화곡동 371-62 (지상 1층) 102호,서울특별시 강서구 화곡동 371-62,126.837390064732,37.5362854862129,
카페 3/4 Waltz,서울특별시 강서구 개화동로27가길 23,서울특별시 강서구 방화동 619-5 ,서울특별시 강서구 방화동 619-5,126.807281865366,37.5632082075543,
(주)커피빈코리아강서그랜드 아이파크점,서울특별시 강서구 화곡로 341,서울특별시 강서구 화곡동 1095-4 (지상1층) ,서울특별시 강서구 화곡동 1095-4,126.850995581546,37.5542929511592,
빽다방 까치산역점,서울특별시 강서구 강서로 48,서울특별시 강서구 화곡동 341-96 (지상1층) ,서울특별시 강서구 화곡동 341-96,126.846734512832,37.5322065422689,
순수커피,서울특별시 강서구 공항대로 140,서울특별시 강서구 마곡동 746-1 마곡엠밸리12단지 (지상 1층) 판매시설2동 106호,서울특별시 강서구 마곡동 746-1,126.823388809057,37.5592565859994,
투썸 강서 송정역점,서울특별시 강서구 공항대로 30,서울특별시 강서구 공항동 1375-0 로얄리빙텔 (지상 1층) 101호,서울특별시 강서구 공항동 1375-0,126.810277422215,37.5606623413741,
몽키바나나,서울특별시 강서구 양천로14길 84-4,서울특별시 강서구 방화동 547-12 (지상 1층) 101호,서울특별시 강서구 방화동 547-12,126.808820853274,37.569713908906,
장수커피,서울특별시 강서구 등촌로55길 18,서울특별시 강서구 등촌동 506-25 (지상1층) ,서울특별시 강서구 등촌동 506-25,126.862857648309,37.5506525188254,
DESSERT39(디저트39),서울특별시 강서구 등촌로55길 8,"서울특별시 강서구 등촌동 506-14 (등촌2동), D.오피스 1층 ",서울특별시 강서구 등촌동 506-14,126.863346144235,37.5504894639967,
커피에 반하다 공항점,서울특별시 강서구 남부순환로11가길 5,서울특별시 강서구 공항동 1335-9 (지상1~2층) ,서울특별시 강서구 공항동 1335-9,126.814368297571,37.5539780469156,
Cafe um plate(카페움플레이트),서울특별시 강서구 마곡중앙1로 72,서울특별시 강서구 마곡동 747-0 마곡엠밸리10단지 (지상 1층) 판매시설동 101호,서울특별시 강서구 마곡동 747-0,126.820063226063,37.5590400107717,
커피 1984,서울특별시 강서구 공항대로45길 10,서울특별시 강서구 등촌동 655-35 은혜빌딩 (지상 1 ~ 2층) ,서울특별시 강서구 등촌동 655-35,126.854530848927,37.5557404864368,
규's 커피,서울특별시 강서구 공항대로 140,서울특별시 강서구 마곡동 746-1 마곡엠밸리12단지 (지상 1층) 판매시설3동 103호,서울특별시 강서구 마곡동 746-1,126.823388809057,37.5592565859994,
학교앞 카페,서울특별시 강서구 우장산로4길 83,서울특별시 강서구 내발산동 706-13 (지상1층) ,서울특별시 강서구 내발산동 706-13,126.838486602937,37.5508930781616,
이디야커피(우장산동점),서울특별시 강서구 우현로 15,"서울특별시 강서구 화곡동 84-4 (우장산동), 우장빌딩 102~3호",서울특별시 강서구 화곡동 84-4,126.843625687446,37.5471679730925,
놀숲 마곡발산점,서울특별시 강서구 마곡중앙6로 93,서울특별시 강서구 마곡동 795-7 열린프라자 (지상 8층) 806호,서울특별시 강서구 마곡동 795-7,126.837697932979,37.5601356822454,
까치산커피,서울특별시 강서구 곰달래로25길 25,서울특별시 강서구 화곡동 342-1 (지상 1층) ,서울특별시 강서구 화곡동 342-1,126.848886379915,37.5319361320093,
배냇,서울특별시 강서구 양천로27길 91-6,"서울특별시 강서구 방화동 134-5 (3동), 지층 ",서울특별시 강서구 방화동 134-5,126.818915868891,37.5775825256443,
서울강서등촌지역자활센터,서울특별시 강서구 강서로47가길 20-7,서울특별시 강서구 내발산동 708-0 드림하우스 (지상 1층) 102호,서울특별시 강서구 내발산동 708-0,126.835073153407,37.5516692540616,
블루 트리,서울특별시 강서구 마곡중앙6로 65,서울특별시 강서구 마곡동 796-6 지투프라자 (지상 1층) 110호,서울특별시 강서구 마곡동 796-6,126.834719405616,37.5604252748897,
맥켄지 커피,서울특별시 강서구 강서로 47-6,서울특별시 강서구 화곡동 343-74 외 1필지 (지상 1층) ,서울특별시 강서구 화곡동 343-74,126.84604620976,37.5320822099417,
라루라루 3호점,서울특별시 강서구 공항대로51길 17-7,서울특별시 강서구 등촌동 654-16 (지상1층) 1동 ,서울특별시 강서구 등촌동 654-16,126.857268250081,37.5553484698454,
리트웨이(우장산점),서울특별시 강서구 강서로 242,서울특별시 강서구 화곡동 1165-1 강서힐스테이트 (지상 1층) 상가동 143호,서울특별시 강서구 화곡동 1165-1,126.836797010994,37.5471644988463,
이디야커피 화곡중앙점,서울특별시 강서구 까치산로 79,서울특별시 강서구 화곡동 24-154 (지상 1층) ,서울특별시 강서구 화곡동 24-154,126.847413765001,37.5457692637848,
셀렉토커피 마곡역점,서울특별시 강서구 마곡서로 101,서울특별시 강서구 마곡동 768-2 외 1필지 동익드미라벨복합빌딩 (지상 1층) 155호,서울특별시 강서구 마곡동 768-2,126.823605646871,37.5626706927393,
커피칼라,서울특별시 강서구 강서로 285,서울특별시 강서구 내발산동 701-12 인소아과복합빌딩 (지상 1층) ,서울특별시 강서구 내발산동 701-12,126.835990068742,37.5512414763195,
카페 헤니알(cafe genial),서울특별시 강서구 공항대로 237,서울특별시 강서구 마곡동 797 에이스타워 마곡 1층 116호,서울특별시 강서구 마곡동 797,126.833912548403,37.5594526887597,
카페라로,서울특별시 강서구 마곡서로 152,서울특별시 강서구 마곡동 759-1 두산더랜드타워 2층 B동 218호,서울특별시 강서구 마곡동 759-1,126.82597944995,37.5676859104888,
바람쐬다,서울특별시 강서구 초록마을로18길 25-11,서울특별시 강서구 화곡동 56-51 외 1필지 (지상 1층) ,서울특별시 강서구 화곡동 56-51,126.849810517766,37.5402712887246,
엘림카페 & 스낵쉼터,서울특별시 강서구 등촌로5길 79,서울특별시 강서구 화곡동 838-1 (지상2층) ,서울특별시 강서구 화곡동 838-1,126.859096338509,37.5327405541724,
까페하늘빛,서울특별시 강서구 양천로47가길 25-10,서울특별시 강서구 가양동 247-3 외 1필지 한국기독교장로회 양천교회 예배당 (지상 1층) ,서울특별시 강서구 가양동 247-3,126.839229798656,37.5714731979702,
커피베이,서울특별시 강서구 발산로 24,"서울특별시 강서구 외발산동 424 2층, 수협공판장동 2층 ",서울특별시 강서구 외발산동 424,126.818746797278,37.5527985069967,
이디야 화곡남부시장점,서울특별시 강서구 등촌로5길 80,서울특별시 강서구 화곡동 830-1 (지상 1층) ,서울특별시 강서구 화곡동 830-1,126.858951804044,37.5330706883775,
에띠임프리미엄라운지,서울특별시 강서구 등촌로55길 21,서울특별시 강서구 등촌동 508-1 에띠임신관 (지상 1층) ,서울특별시 강서구 등촌동 508-1,126.862652261691,37.5504005413338,
이디야 마곡나루역점,서울특별시 강서구 마곡중앙5로 6,"서울특별시 강서구 마곡동 760-0 마곡나루역보타닉푸르지오시티 (지상 1층) 103~104, 130호 ",서울특별시 강서구 마곡동 760-0,126.827554917518,37.5673140391214,
파이어 앤드 아이스,서울특별시 강서구 강서로47길 34-8,서울특별시 강서구 내발산동 680-0 (지하 1층) ,서울특별시 강서구 내발산동 680-0,126.834487572495,37.5531257074479,
이디야 마곡역점,서울특별시 강서구 공항대로 195,서울특별시 강서구 마곡동 773-3 힐스테이트에코동익 (지상 1층) 상가-131호,서울특별시 강서구 마곡동 773-3,126.829169795133,37.5598879504334,
커피베이마곡역점,서울특별시 강서구 공항대로 205,서울특별시 강서구 마곡동 774-0 에스에이치빌딩 (지상 1층) 102호,서울특별시 강서구 마곡동 774-0,126.830443547958,37.5597767115477,
메가커피 마곡점,서울특별시 강서구 마곡중앙5로1길 20,서울특별시 강서구 마곡동 757-3 마곡나루역보타닉비즈타워 (지상 1층) 112호,서울특별시 강서구 마곡동 757-3,126.826712019131,37.5686664592954,
이디야커피(까치산역),서울특별시 강서구 강서로17길 6,서울특별시 강서구 화곡동 349-15 (지상 1층) ,서울특별시 강서구 화곡동 349-15,126.845201122636,37.5334249471385,
브라운씨,서울특별시 강서구 강서로47가길 20-10,서울특별시 강서구 내발산동 700-5 (지상 1층) ,서울특별시 강서구 내발산동 700-5,126.835124598529,37.5518442995723,
카페 글루세라(Glue Sera),서울특별시 강서구 마곡중앙5로 6,서울특별시 강서구 마곡동 760-0 마곡나루역보타닉푸르지오시티 (지하 1층) 130호,서울특별시 강서구 마곡동 760-0,126.827554917518,37.5673140391214,
커피홀,서울특별시 강서구 마곡중앙로 161-1,서울특별시 강서구 마곡동 760-2 마곡나루역캐슬파크 (지상 1층) 116호,서울특별시 강서구 마곡동 760-2,126.827453357716,37.5678656599047,
국민우유집 가양점,서울특별시 강서구 양천로 401,서울특별시 강서구 가양동 1498-0 강서한강자이타워 (지상 1층) B동 108-1호,서울특별시 강서구 가양동 1498-0,126.84764409296,37.5657010514328,
빽다방 마곡나루역북부점,서울특별시 강서구 마곡중앙5로1길 20,서울특별시 강서구 마곡동 757-3 마곡나루역보타닉비즈타워 (지상 1층) 101호,서울특별시 강서구 마곡동 757-3,126.826712019131,37.5686664592954,
서울강서지역자활센터더마실카페,서울특별시 강서구 양천로18길 16,서울특별시 강서구 방화동 575-9 로뎀하우스 (지상 1층) 101호,서울특별시 강서구 방화동 575-9,126.812606154569,37.5727590307765,
커피에 반하다(등촌점),서울특별시 강서구 공항대로41길 66,서울특별시 강서구 등촌동 698-1 세신종합상가 (지상 1층) 122호,서울특별시 강서구 등촌동 698-1,126.846579308762,37.5606317523438,
요거프레소 강서구청점,서울특별시 강서구 공항대로46길 57,서울특별시 강서구 화곡동 1115-8 정원빌딩 (지상 1층) 102호,서울특별시 강서구 화곡동 1115-8,126.852023133482,37.553514610629,
캐시아 커피하우스,서울특별시 강서구 강서로56가길 141,서울특별시 강서구 등촌동 683-2 (지상 1층) ,서울특별시 강서구 등촌동 683-2,126.841422341369,37.5658039511322,
스트릿츄러스 NC강서점,서울특별시 강서구 강서로56길 17,"서울특별시 강서구 등촌동 689 3동, 강서NC백화점 8층 ",서울특별시 강서구 등촌동 689,126.840498784915,37.559933531546,
이디야 커피,서울특별시 강서구 방화동로 95,서울특별시 강서구 방화동 580-130 (지상1층) ,서울특별시 강서구 방화동 580-130,126.812631152778,37.5690161610357,
자연드림 등촌점,서울특별시 강서구 강서로56길 100,서울특별시 강서구 등촌동 667-3 (지상1층) ,서울특별시 강서구 등촌동 667-3,126.844231683133,37.5589032708304,
편의점&카페24,서울특별시 강서구 등촌로 3,서울특별시 강서구 화곡동 782-5 부경빌딩 (지상 1층) ,서울특별시 강서구 화곡동 782-5,126.863536200042,37.5302843243461,
아메리칸 트레일러 NC강서점,서울특별시 강서구 강서로56길 17,서울특별시 강서구 등촌동 689 강서NC백화점 8층 ,서울특별시 강서구 등촌동 689,126.840498784915,37.559933531546,
하늘가득,서울특별시 강서구 곰달래로57길 23-7,서울특별시 강서구 화곡동 803-25 (지상 1층) ,서울특별시 강서구 화곡동 803-25,126.861397607642,37.5332172937467,
래빗,서울특별시 강서구 공항대로42길 54-35,서울특별시 강서구 내발산동 658-7 외 1필지 지원빌딩 (지상 2층) ,서울특별시 강서구 내발산동 658-7,126.84243494044,37.556877158722,
다빈,서울특별시 강서구 마곡서로 168,서울특별시 강서구 마곡동 758-1 마곡럭스나인오피스텔엘동 (지상 2층) 205호,서울특별시 강서구 마곡동 758-1,126.825538652732,37.5689599870746,
메가커피,서울특별시 강서구 양천로 492,서울특별시 강서구 등촌동 78-7 외 1필지 길훈엔트런스빌 (지상 1층) 105호,서울특별시 강서구 등촌동 78-7,126.854626804611,37.560875023018,
봉푸드 분식(칼국수)음료,서울특별시 강서구 방화동로5길 3,서울특별시 강서구 방화동 612-6 1층 ,서울특별시 강서구 방화동 612-6,126.810238183129,37.5637277347294,
송정뜨락,서울특별시 강서구 송정로 45,서울특별시 강서구 공항동 60-28 1층 ,서울특별시 강서구 공항동 60-28,126.810074279462,37.5587828080206,
파스쿠찌 강서NC백화점,서울특별시 강서구 강서로56길 17,서울특별시 강서구 등촌동 689 NC강서점 (지상 8층) ,서울특별시 강서구 등촌동 689,126.840498784915,37.559933531546,
바운트커피(BOUNTE COFFEE),서울특별시 강서구 마곡동로4길 15,서울특별시 강서구 마곡동 797-10 엠팰리체 (지상 1층) 103호,서울특별시 강서구 마곡동 797-10,126.83524805093,37.5598184721733,
커피베이,서울특별시 강서구 양천로 559,서울특별시 강서구 가양동 449-19 가양이마트매장동 (지상 3층) ,서울특별시 강서구 가양동 449-19,126.861817646457,37.558194814626,
프롬플랜츠,서울특별시 강서구 등촌로39가길 4,서울특별시 강서구 등촌동 516-4 (지상 1층) ,서울특별시 강서구 등촌동 516-4,126.860266764301,37.5459568130887,
카페미뇽(cafe mignon),서울특별시 강서구 마곡동로 62,서울특별시 강서구 마곡동 796-3 외 1필지 마곡사이언스타워 (지상 1층) 121호,서울특별시 강서구 마곡동 796-3,126.833890184435,37.5605537644679,
달리는커피 화곡점,서울특별시 강서구 곰달래로36길 13,서울특별시 강서구 화곡동 857-14 (지상 1층) ,서울특별시 강서구 화곡동 857-14,126.853889894649,37.5304867717805,
커피에반하다 강서가양점,서울특별시 강서구 양천로 551-24,서울특별시 강서구 가양동 449-21 한화비지메트로2차 (지상 1층) 104일부호,서울특별시 강서구 가양동 449-21,126.861958550884,37.5588704565214,
엘지사이언스파크 지 카페,서울특별시 강서구 마곡중앙10로 10,서울특별시 강서구 마곡동 770-0 엘지사이언스파크 (지하 1층) W동 ,서울특별시 강서구 마곡동 770-0,126.830233419322,37.5634974316232,
엘지사이언스파크 엘 카페,서울특별시 강서구 마곡중앙10로 10,서울특별시 강서구 마곡동 770-0 엘지사이언스파크 (지하 1층) W동 ,서울특별시 강서구 마곡동 770-0,126.830233419322,37.5634974316232,
감성커피 방화역점,서울특별시 강서구 방화대로47가길 7,서울특별시 강서구 방화동 830-3 방화샤르망1오피스텔 (지상 1층) 112호,서울특별시 강서구 방화동 830-3,126.813031022103,37.5765050441781,
통툰만화까페,서울특별시 강서구 강서로52길 16,서울특별시 강서구 내발산동 652-0 외 1필지 (지상 2층) ,서울특별시 강서구 내발산동 652-0,126.838934950863,37.5576845042108,
주스라이프,서울특별시 강서구 공항대로61길 30,서울특별시 강서구 염창동 273-1 (지상 1층) ,서울특별시 강서구 염창동 273-1,126.866059641022,37.5522558255664,
빽다방 발산역플레이스점,서울특별시 강서구 강서로 395,서울특별시 강서구 마곡동 793-9 플레이스에이치 (지상 1층) 108호,서울특별시 강서구 마곡동 793-9,126.838610552611,37.561058561996,
블루포트 KC대학교점,서울특별시 강서구 까치산로24길 47,서울특별시 강서구 화곡동 953-1 케이씨대학교 학생복지관 1층 ,서울특별시 강서구 화곡동 953-1,126.854156524867,37.5486853052598,
커피에반하다 우장산역점,서울특별시 강서구 강서로 242,서울특별시 강서구 화곡동 1165-1 강서힐스테이트 (지상 1층) 상가동 159~160호,서울특별시 강서구 화곡동 1165-1,126.836797010994,37.5471644988463,
카페DA,서울특별시 강서구 공항대로61길 55,서울특별시 강서구 등촌동 633-33 연우빌라 1층 ,서울특별시 강서구 등촌동 633-33,126.86650858408,37.5532688748774,
시럽,서울특별시 강서구 강서로33길 26,서울특별시 강서구 화곡동 1050-37 1층 ,서울특별시 강서구 화곡동 1050-37,126.838371399347,37.5418260865042,
카페조이,서울특별시 강서구 양천로49길 29,서울특별시 강서구 가양동 275-5 (지상 1층) ,서울특별시 강서구 가양동 275-5,126.840532040303,37.5699783224104,
누쿠이커피팩토리,서울특별시 강서구 강서로29길 74-1,서울특별시 강서구 화곡동 380-9 (지상 1층) ,서울특별시 강서구 화곡동 380-9,126.837875449617,37.5384823397814,
카페올디네리,서울특별시 강서구 까치산로 125,서울특별시 강서구 화곡동 977-22 (지상 1층) ,서울특별시 강서구 화곡동 977-22,126.850579238288,37.5490137513721,
엘지사이언스파크 7층 구내식당 카페,서울특별시 강서구 마곡중앙10로 30,서울특별시 강서구 마곡동 770-1 엘지사이언스파크 (지상 7층) 통합지원센터동 ,서울특별시 강서구 마곡동 770-1,126.831230342853,37.5634030851051,
더플롯(가양역점),서울특별시 강서구 양천로 510,서울특별시 강서구 등촌동 628-13 현대프린스텔 (지상 1층) 104호,서울특별시 강서구 등촌동 628-13,126.856339450696,37.5601170390069,
매머드익스프레스강서한강자이타워16호,서울특별시 강서구 양천로 401,서울특별시 강서구 가양동 1498-0 강서한강자이타워 (지상 1층) A동 116호,서울특별시 강서구 가양동 1498-0,126.84764409296,37.5657010514328,
할리스 김포공항점,서울특별시 강서구 하늘길 112,"서울특별시 강서구 공항동 1373-5 김포국제공항 국내선, 1층 ",서울특별시 강서구 공항동 1373-5,126.803355336745,37.5587841523495,
Lcafe(엘카페),서울특별시 강서구 마곡중앙10로 30,서울특별시 강서구 마곡동 770-1 엘지사이언스파크 (지하 1층) ,서울특별시 강서구 마곡동 770-1,126.831230342853,37.5634030851051,
(주)행복마루,서울특별시 강서구 마곡중앙10로 70,서울특별시 강서구 마곡동 789-0 엘지사이언스파크 (지하 1층) ,서울특별시 강서구 마곡동 789-0,126.834429972258,37.563047307466,
CU 염창월드점,서울특별시 강서구 공항대로59다길 122,서울특별시 강서구 염창동 272-12 ,서울특별시 강서구 염창동 272-12,126.869447736533,37.550795048615,
오브드(ovd),서울특별시 강서구 등촌로39나길 20,서울특별시 강서구 등촌동 524-1 (지상 1층) ,서울특별시 강서구 등촌동 524-1,126.861511306659,37.5463127320267,
위드유 마곡카페,서울특별시 강서구 마곡중앙8로 71,서울특별시 강서구 마곡동 789-4 엘지사이언스파크 (지하 1층) ,서울특별시 강서구 마곡동 789-4,126.834256830061,37.5618584711387,
드롭탑엘지사이언스,서울특별시 강서구 마곡중앙10로 30,서울특별시 강서구 마곡동 770-1 엘지사이언스파크 (지하 1층) ,서울특별시 강서구 마곡동 770-1,126.831230342853,37.5634030851051,
플레이보6라이트(공차),서울특별시 강서구 하늘길 112,서울특별시 강서구 공항동 1373 김포공항 국내선청사 ,서울특별시 강서구 공항동 1373,126.803355336745,37.5587841523495,
쏘나이스커피,서울특별시 강서구 마곡중앙로 59-17,서울특별시 강서구 마곡동 798-6 류마타워2 B101호 ,서울특별시 강서구 마곡동 798-6,126.824795871557,37.5589090959127,
백미당 김포공항점,서울특별시 강서구 하늘길 112,서울특별시 강서구 공항동 1373 김포공항 ,서울특별시 강서구 공항동 1373,126.803355336745,37.5587841523495,
카페게이트 마곡나루점,서울특별시 강서구 마곡중앙로 161-11,서울특별시 강서구 마곡동 760-1 힐스테이트에코마곡나루역라마다앙코르서울 (지상 1층) 104호,서울특별시 강서구 마곡동 760-1,126.826720979429,37.5679745986878,
카페그랑,서울특별시 강서구 마곡중앙로 150,서울특별시 강서구 마곡동 766 에스앤아이강서사옥(지상 1층) ,서울특별시 강서구 마곡동 766,126.828520491813,37.5669944211027,
카페 길,서울특별시 강서구 강서로8길 24,서울특별시 강서구 화곡동 892-20 1층 102호,서울특별시 강서구 화곡동 892-20,126.849355817248,37.5297841512291,
블랙벤자민,서울특별시 강서구 까치산로18길 17,서울특별시 강서구 화곡동 966-17 파크하임 (지상 1층) ,서울특별시 강서구 화곡동 966-17,126.85004618475,37.5472891962318,
메가엠지씨커피 강서우림블루나인점,서울특별시 강서구 양천로 583,서울특별시 강서구 염창동 240-21 우림블루나인비즈니스센터 (지상 1층) 123호,서울특별시 강서구 염창동 240-21,126.864347419732,37.5571161918617,
세븐일레븐 방화하늘점,서울특별시 강서구 금낭화로 61,서울특별시 강서구 방화동 564-75 (지상 1층) ,서울특별시 강서구 방화동 564-75,126.811419293282,37.5708149584176,
언니네커피,서울특별시 강서구 마곡중앙5로1길 20,서울특별시 강서구 마곡동 757-3 마곡나루역보타닉비즈타워 (지상 1층) 119호,서울특별시 강서구 마곡동 757-3,126.826712019131,37.5686664592954,
오롯이(OROSI),서울특별시 강서구 초록마을로 37,서울특별시 강서구 화곡동 53-10 (지상 1층) ,서울특별시 강서구 화곡동 53-10,126.846945570255,37.54280851733,
슈거문,서울특별시 강서구 공항대로 213,서울특별시 강서구 마곡동 774-2 보타닉파크타워2 1301-33호 ,서울특별시 강서구 마곡동 774-2,126.831365571556,37.5596993751147,
예인,서울특별시 강서구 방화대로34길 120,서울특별시 강서구 마곡동 327-53 신안빌라 (지상 2층) 상가동 1호,서울특별시 강서구 마곡동 327-53,126.822961624065,37.5711859313823,
카페인중독(화곡점),서울특별시 강서구 까치산로4길 65,서울특별시 강서구 화곡동 102-12 (지상 1층) ,서울특별시 강서구 화곡동 102-12,126.846313454748,37.5403456266755,
날쌘카페 마곡점,서울특별시 강서구 공항대로36길 107,서울특별시 강서구 내발산동 678-18 (지상 1층) ,서울특별시 강서구 내발산동 678-18,126.836113794348,37.5538099404444,
"커피,한송이",서울특별시 강서구 공항대로45길 44,서울특별시 강서구 등촌동 641-11 청림오피스텔 (지상 1층) 105호,서울특별시 강서구 등촌동 641-11,126.855808218309,37.5568092839784,
콩볶는다락,서울특별시 강서구 양천로 626,서울특별시 강서구 등촌동 633-7 (지상 1층) ,서울특별시 강서구 등촌동 633-7,126.867029350873,37.5540565737222,
이디야 마곡퀸즈파크9점,서울특별시 강서구 공항대로 247,서울특별시 강서구 마곡동 797-1 퀸즈파크나인 4층 C동 409호,서울특별시 강서구 마곡동 797-1,126.83523920295,37.5593135416408,
카페에니어,서울특별시 강서구 마곡중앙로 161-8,서울특별시 강서구 마곡동 757-0 두산더랜드파크 (지상 2층) A동 217호,서울특별시 강서구 마곡동 757-0,126.827338682565,37.568851450649,
(주)모두락,서울특별시 강서구 하늘길 70,서울특별시 강서구 과해동 676 항공지원센터 (지상 3층) ,서울특별시 강서구 과해동 676,126.796364852789,37.5619975959387,
홉슈크림,서울특별시 강서구 하늘길 38,"서울특별시 강서구 방화동 886-0 김포공항, 롯데몰, 스카이시티 (지하 1층) ",서울특별시 강서구 방화동 886-0,126.80296035927,37.5713698504776,
솔카페,서울특별시 강서구 방화대로 352,서울특별시 강서구 방화동 273-7 (지상 1층) 4-C호,서울특별시 강서구 방화동 273-7,126.817374071497,37.5723588933048,
우노(UNO),서울특별시 강서구 곰달래로57길 13,서울특별시 강서구 화곡동 798-22 (지상 1층) ,서울특별시 강서구 화곡동 798-22,126.86176113727,37.5328430838764,
코오롱엘에스아이(주),서울특별시 강서구 마곡동로 110,서울특별시 강서구 마곡동 788 코오롱one&only타워 (지상 8층) ,서울특별시 강서구 마곡동 788,126.834856290643,37.5646075275794,
라니네,서울특별시 강서구 곰달래로33길 62,서울특별시 강서구 화곡동 453-2 (지상 1층) ,서울특별시 강서구 화곡동 453-2,126.851962296166,37.5336898605136,
디자인에버(주),서울특별시 강서구 국회대로7길 176,서울특별시 강서구 화곡동 880-10 (지상 1층) ,서울특별시 강서구 화곡동 880-10,126.851071370986,37.5291669790995,
오늘도열었을거야,서울특별시 강서구 화곡로13길 104,서울특별시 강서구 화곡동 1016-36 (지상 1층) ,서울특별시 강서구 화곡동 1016-36,126.833097646355,37.5445884198873,
씨유 화곡월정점,서울특별시 강서구 월정로 156,서울특별시 강서구 화곡동 360-17 평화빌딩 (지상 1층) ,서울특별시 강서구 화곡동 360-17,126.836858416442,37.5327459857612,
카페 우드진,서울특별시 강서구 마곡중앙6로 45,서울특별시 강서구 마곡동 772-5 리더스퀘어마곡 (지상 1층) 113호,서울특별시 강서구 마곡동 772-5,126.832720625607,37.5606312206415,
커피에반하다 방화역점,서울특별시 강서구 금낭화로23길 8,서울특별시 강서구 방화동 817 방화7단지동성아파트 (지상 1층) ,서울특별시 강서구 방화동 817,126.81259277311,37.5794087000437,
커피볶는카페어썸,서울특별시 강서구 공항대로 549,서울특별시 강서구 염창동 272-9 (지상 1층) ,서울특별시 강서구 염창동 272-9,126.867069894803,37.5502173788335,
더썬카페,서울특별시 강서구 화곡로63길 31,서울특별시 강서구 등촌동 658 모노씨티빌등촌 ,서울특별시 강서구 등촌동 658,126.851163415684,37.5574222346042,
타이트로프(Tight Rope),서울특별시 강서구 우현로 32,서울특별시 강서구 화곡동 79-0 좋은교회 (지상 1층) ,서울특별시 강서구 화곡동 79-0,126.842214164232,37.5480598853556,
메가커피 화곡역점,서울특별시 강서구 화곡로 160,서울특별시 강서구 화곡동 1074-24 (지상 1층) ,서울특별시 강서구 화곡동 1074-24,126.83944684943,37.541170815534,
공차 김포공항국제선,서울특별시 강서구 하늘길 38,"서울특별시 강서구 방화동 886 김포공항, 롯데몰, 스카이시티 (지상 2층) ",서울특별시 강서구 방화동 886,126.80296035927,37.5713698504776,
레오,서울특별시 강서구 공항대로51길 24,서울특별시 강서구 등촌동 653 세븐빌 (지상 1층) 101동 101호,서울특별시 강서구 등촌동 653,126.857834455196,37.5552293203502,
광커피,서울특별시 강서구 등촌로5길 21,서울특별시 강서구 화곡동 777-11 (지상 1층) ,서울특별시 강서구 화곡동 777-11,126.862352741932,37.5331507457378,
커피에반하다 송정역점,서울특별시 강서구 공항대로 43,서울특별시 강서구 공항동 27-1 준명빌딩 (지상 1층) ,서울특별시 강서구 공항동 27-1,126.81217254983,37.5615096042789,
마로네,서울특별시 강서구 화곡로63길 125,서울특별시 강서구 등촌동 663-7 윤준빌딩 (지상 1층) ,서울특별시 강서구 등촌동 663-7,126.84615790453,37.558775242029,
투브이(Two.V),서울특별시 강서구 강서로39길 13,서울특별시 강서구 화곡동 1034-12 (지상 2층) ,서울특별시 강서구 화곡동 1034-12,126.836970017103,37.5441583771611,
더마카롱,서울특별시 강서구 강서로16길 32,서울특별시 강서구 화곡동 341-16 화창빌딩 (지상 1층) ,서울특별시 강서구 화곡동 341-16,126.848125023369,37.5330780742698,
고양이별캣카페,서울특별시 강서구 강서로 391,서울특별시 강서구 마곡동 794 문영비즈웍스 (지상 9층) 903호,서울특별시 강서구 마곡동 794,126.838427628497,37.5605448342463,
커피콩,서울특별시 강서구 강서로 206,서울특별시 강서구 화곡동 1026-12 (지상 1층) ,서울특별시 강서구 화곡동 1026-12,126.838042848917,37.5445253885171,
볼원락볼링장,서울특별시 강서구 강서로54길 42,서울특별시 강서구 등촌동 672-0 (지상 2층) ,서울특별시 강서구 등촌동 672-0,126.841096965391,37.5588030473716,
미소커핑,서울특별시 강서구 곰달래로31다길 9,서울특별시 강서구 화곡동 452-20 예은빌 (지상 1층) 101호,서울특별시 강서구 화곡동 452-20,126.851777446831,37.5335643896257,
늘봄에,서울특별시 강서구 양천로17길 27-2,서울특별시 강서구 방화동 453-30 갤럭시트윈빌 2동 101호,서울특별시 강서구 방화동 453-30,126.812809137528,37.5750137288437,
카페 팬시,서울특별시 강서구 화곡로64길 82,서울특별시 강서구 등촌동 654-13 (지상 1층) ,서울특별시 강서구 등촌동 654-13,126.857387298442,37.5557099134571,
(주)파리크라상 잠바주스 김포공항국내선점,서울특별시 강서구 하늘길 112,서울특별시 강서구 공항동 1373-5 국내선청사 (지상 2층) ,서울특별시 강서구 공항동 1373-5,126.803355336745,37.5587841523495,
일리카페 김포공항 테라스점,서울특별시 강서구 하늘길 112,서울특별시 강서구 공항동 1373-5 김포공항 국내선청사 4층 ,서울특별시 강서구 공항동 1373-5,126.803355336745,37.5587841523495,
밤부커피디엔에이 발산점,서울특별시 강서구 강서로 307,서울특별시 강서구 내발산동 678-7 서울스타병원빌딩 (지상 1층) 103~104호,서울특별시 강서구 내발산동 678-7,126.836227554297,37.5532303968282,
아마도(AMADO),서울특별시 강서구 등촌로 147,서울특별시 강서구 등촌동 560-11 유석빌딩 ,서울특별시 강서구 등촌동 560-11,126.862405130693,37.5428771879604,
카페오키드,서울특별시 강서구 마곡동로 161,서울특별시 강서구 마곡동 812 서울식물원 어린이정원학교 2층 ,서울특별시 강서구 마곡동 812,126.83284283132,37.5722444079878,
코레우리(Coreuri),서울특별시 강서구 마곡동로 161,서울특별시 강서구 마곡동 812-0 서울식물원 식물문화센터 (지상 1층) ,서울특별시 강서구 마곡동 812-0,126.83284283132,37.5722444079878,
보라크레페,서울특별시 강서구 강서로 263-28,서울특별시 강서구 내발산동 717-31 1층 ,서울특별시 강서구 내발산동 717-31,126.83460144284,37.5494799814203,
카페게이트 마곡중앙점,서울특별시 강서구 공항대로 219,서울특별시 강서구 마곡동 774-3 센테니아 (지상 1층) 104호,서울특별시 강서구 마곡동 774-3,126.83201084043,37.5596348826715,
스트릿츄러스 김포공항롯데몰,서울특별시 강서구 하늘길 38,서울특별시 강서구 방화동 886-0 김포공항 롯데몰 (지하 1층) ,서울특별시 강서구 방화동 886-0,126.80296035927,37.5713698504776,
메가엠지씨커피 까치산역점,서울특별시 강서구 강서로 33,서울특별시 강서구 화곡동 343-61 (지상 1층) ,서울특별시 강서구 화곡동 343-61,126.847048770243,37.5307303901082,
커피 이레,서울특별시 강서구 금낭화로 287-10,서울특별시 강서구 방화동 829-2 강서농협하나로마트 (지상 1층) ,서울특별시 강서구 방화동 829-2,126.81185460006,37.5767730225221,
시크릿쥬쥬엔또봇키즈까페 발산점,서울특별시 강서구 공항대로 222,서울특별시 강서구 마곡동 800-4 발산W타워 410호,서울특별시 강서구 마곡동 800-4,126.832173382942,37.5586687054378,
커피아리아,서울특별시 강서구 등촌로 193-2,서울특별시 강서구 등촌동 511-11 (지상 1층) ,서울특별시 강서구 등촌동 511-11,126.862650674243,37.5471336108585,
유오유(UOU),서울특별시 강서구 양천로57길 13,서울특별시 강서구 가양동 1479-4 시드프라자 B109호,서울특별시 강서구 가양동 1479-4,126.852023677534,37.5635982025081,
카페루시,서울특별시 강서구 공항대로 213,서울특별시 강서구 마곡동 774-2 보타닉파크타워2 (지상 1층) 112호,서울특별시 강서구 마곡동 774-2,126.831365571556,37.5596993751147,
샌블리,서울특별시 강서구 강서로17길 134,서울특별시 강서구 화곡동 359-63 영주빌딩 (지상 1층) ,서울특별시 강서구 화곡동 359-63,126.838334291543,37.53207487807,
디유케이커피(DUK COFFEE),서울특별시 강서구 양천로 401,서울특별시 강서구 가양동 1498 강서한강자이타워 A동 106-1호,서울특별시 강서구 가양동 1498,126.84764409296,37.5657010514328,
카카오독,서울특별시 강서구 곰달래로60길 33,서울특별시 강서구 화곡동 782-11 (지하 1층) ,서울특별시 강서구 화곡동 782-11,126.863289765159,37.5307946364804,
이디야까치산로점,서울특별시 강서구 까치산로 182,서울특별시 강서구 화곡동 1167-0 (지상 1층) 101~102호,서울특별시 강서구 화곡동 1167-0,126.853891289928,37.553313221654,
보드멜,서울특별시 강서구 공항대로 140,서울특별시 강서구 마곡동 746-1 마곡엠밸리12단지 (지상 1층) 판매2동 101호,서울특별시 강서구 마곡동 746-1,126.823388809057,37.5592565859994,
빌리엔젤 마곡점,서울특별시 강서구 마곡동로 62,서울특별시 강서구 마곡동 796-3 외 1필지 마곡사이언스타워 (지상 1층) 107~1호,서울특별시 강서구 마곡동 796-3,126.833890184435,37.5605537644679,
릴리앤리야,서울특별시 강서구 허준로 217,서울특별시 강서구 가양동 1487 가양테크노타운 1112호,서울특별시 강서구 가양동 1487,126.862889794292,37.5609643758115,
컴포즈커피 마곡나루점,서울특별시 강서구 마곡중앙로 161-8,서울특별시 강서구 마곡동 757-0 두산더랜드파크 (지상 1층) A동 109호,서울특별시 강서구 마곡동 757-0,126.827338682565,37.568851450649,
파스쿠찌 김포공항국내선점,서울특별시 강서구 하늘길 112,서울특별시 강서구 공항동 1373-5 국내선청사 (지상 3층) ,서울특별시 강서구 공항동 1373-5,126.803355336745,37.5587841523495,
커피 내풀로,서울특별시 강서구 화곡로61길 109,서울특별시 강서구 등촌동 664-11 천수빌딩 (지상 1층) ,서울특별시 강서구 등촌동 664-11,126.846467967864,37.5583008205634,
위한커피,서울특별시 강서구 등촌로53길 11,서울특별시 강서구 등촌동 509-11 (지상 1층) ,서울특별시 강서구 등촌동 509-11,126.862916317599,37.5492662216151,
핸즈업커피 (가양역점),서울특별시 강서구 공항대로45길 63,서울특별시 강서구 등촌동 639-23 ,서울특별시 강서구 등촌동 639-23,126.856001180153,37.5578690013942,
익스큐즈미,서울특별시 강서구 마곡동로 56,서울특별시 강서구 마곡동 797-6 건와빌딩 (지상 1층) ,서울특별시 강서구 마곡동 797-6,126.833803408762,37.559977905954,
"카페,1층102호",서울특별시 강서구 공항대로 382,서울특별시 강서구 화곡동 1145-0 우장산롯데캐슬아파트 (지상 1층) 상가동 102호,서울특별시 강서구 화곡동 1145-0,126.849547172183,37.5563958430889,
카페오월,서울특별시 강서구 초록마을로 36,서울특별시 강서구 화곡동 59-9 한성타운 (지상 1층) 103호,서울특별시 강서구 화곡동 59-9,126.846854883735,37.5425563904004,
바른마카롱,서울특별시 강서구 등촌로39가길 28-9,서울특별시 강서구 등촌동 515-21 다담가 (지상 1층) 102호,서울특별시 강서구 등촌동 515-21,126.858720582556,37.5456454803352,
컵(CUP) 커피,서울특별시 강서구 마곡중앙2로 5,서울특별시 강서구 마곡동 799-6 1층 107-1호,서울특별시 강서구 마곡동 799-6,126.827453842928,37.5584780994004,
플라워링 트리(FLOWERING TREE),서울특별시 강서구 화곡로26가길 11,서울특별시 강서구 화곡동 1079 101호,서울특별시 강서구 화곡동 1079,126.839508823346,37.5406584115758,
아리미 디저트(arimi dessert),서울특별시 강서구 마곡중앙로 165,서울특별시 강서구 마곡동 757-5 안강프라이빗타워 3층 306호 ,서울특별시 강서구 마곡동 757-5,126.827697450113,37.5685808655445,
와플대학 화곡본캠퍼스,서울특별시 강서구 까치산로10길 24,서울특별시 강서구 화곡동 61-176 (지상 1층) ,서울특별시 강서구 화곡동 61-176,126.845924741094,37.542510490903,
카페해,서울특별시 강서구 우장산로 13,서울특별시 강서구 내발산동 665-17 천우네오젠아파트 ,서울특별시 강서구 내발산동 665-17,126.838870432278,37.554744734563,
프리키(Freaky),서울특별시 강서구 강서로45길 39,서울특별시 강서구 화곡동 1008-13 (지상 1층) 101호,서울특별시 강서구 화곡동 1008-13,126.833972867298,37.5478240565918,
블루포트 이대서울병원점,서울특별시 강서구 공항대로 260,서울특별시 강서구 마곡동 808-0 이화의대부속서울병원 (지하 2층) ,서울특별시 강서구 마곡동 808-0,126.836266829117,37.5572628621214,
허니유카페,서울특별시 강서구 공항대로 213,"서울특별시 강서구 마곡동 774-2 보타닉파크타워2, (지상1층) ",서울특별시 강서구 마곡동 774-2,126.831365571556,37.5596993751147,
콘레드커피 가양점,서울특별시 강서구 양천로49길 35,서울특별시 강서구 가양동 276-2 한림빌딩 102-1호 ,서울특별시 강서구 가양동 276-2,126.840501123415,37.5701974926066,
에슬로우,서울특별시 강서구 강서로74길 58,서울특별시 강서구 가양동 110-2 대하자동차설비(지상 1층) 105호,서울특별시 강서구 가양동 110-2,126.844105317482,37.5659927689855,
유어무드,서울특별시 강서구 양천로 36,서울특별시 강서구 방화동 534-6 더홈(지상1층) ,서울특별시 강서구 방화동 534-6,126.807894973025,37.5726901007352,
파스쿠찌 이대서울병원점,서울특별시 강서구 공항대로 260,서울특별시 강서구 마곡동 808 이화의대부속서울병원(1층단독건물) ,서울특별시 강서구 마곡동 808,126.836266829117,37.5572628621214,
이슬케이크,서울특별시 강서구 양천로 470,서울특별시 강서구 등촌동 717 그레이스힐(지하1층) B104호,서울특별시 강서구 등촌동 717,126.852482159998,37.562064740914,
올소스터디테이블,서울특별시 강서구 우장산로 7,서울특별시 강서구 내발산동 665-24 장원빌딩(지상2층) ,서울특별시 강서구 내발산동 665-24,126.837994861209,37.5548298519536,
고양이똥3,서울특별시 강서구 공항대로45길 30,서울특별시 강서구 등촌동 655 1층 ,서울특별시 강서구 등촌동 655,126.855614430436,37.5565910960552,
지파시롯데몰 김포공항점,서울특별시 강서구 하늘길 38,"서울특별시 강서구 방화동 886 김포공항, 롯데몰, 스카이시티 ",서울특별시 강서구 방화동 886,126.80296035927,37.5713698504776,
매머드 익스프레스 까치산역점,서울특별시 강서구 강서로16길 5,서울특별시 강서구 화곡동 340-42 1층 ,서울특별시 강서구 화곡동 340-42,126.846546975861,37.5327914984409,
삐삐(pippi),서울특별시 강서구 강서로54길 93,서울특별시 강서구 등촌동 667-15 (지상 1층) ,서울특별시 강서구 등촌동 667-15,126.843867086817,37.558763765531,
공차 이대서울병원점,서울특별시 강서구 공항대로 260,서울특별시 강서구 마곡동 808-0 이화의대부속서울병원 (지하 1층) ,서울특별시 강서구 마곡동 808-0,126.836266829117,37.5572628621214,
플라워카페라루즈,서울특별시 강서구 등촌로13길 40,서울특별시 강서구 화곡동 504-57 엘케이드림빌 (지하 1층) B03호,서울특별시 강서구 화곡동 504-57,126.861058279394,37.5356077890711,
카페 우드진 마곡나루점,서울특별시 강서구 마곡중앙로 161-8,서울특별시 강서구 마곡동 757 두산더랜드파크 제A동 108호,서울특별시 강서구 마곡동 757,126.827338682565,37.568851450649,
212베이크샵,서울특별시 강서구 마곡중앙로 161-1,"서울특별시 강서구 마곡동 760-2 마곡나루역캐슬파크(지상2층) 212, 233호 ",서울특별시 강서구 마곡동 760-2,126.827453357716,37.5678656599047,
(주)보나비 아티제 이대서울병원점,서울특별시 강서구 공항대로 260,서울특별시 강서구 마곡동 808 이화의대부속서울병원 지하1층 ,서울특별시 강서구 마곡동 808,126.836266829117,37.5572628621214,
야무진 대장간,서울특별시 강서구 공항대로45길 30,서울특별시 강서구 등촌동 655 1층 ,서울특별시 강서구 등촌동 655,126.855614430436,37.5565910960552,
앤티앤스,서울특별시 강서구 공항대로 260,서울특별시 강서구 마곡동 808 이화의대부속서울병원 (지하 1층) ,서울특별시 강서구 마곡동 808,126.836266829117,37.5572628621214,
커피에반하다,서울특별시 강서구 공항대로 227,서울특별시 강서구 마곡동 774-4 마곡센트럴타워Ⅰ(지상 1층) 105호,서울특별시 강서구 마곡동 774-4,126.832686373319,37.5596003426585,
잠바주스 이대서울병원점,서울특별시 강서구 공항대로 260,서울특별시 강서구 마곡동 808 이화의대부속서울병원(지상 4층) ,서울특별시 강서구 마곡동 808,126.836266829117,37.5572628621214,
메가엠지씨커피방화역점,서울특별시 강서구 금낭화로 146,서울특별시 강서구 방화동 830 오피앙(지상 1층) 107호,서울특별시 강서구 방화동 830,126.813305186149,37.5781901549032,
(주)나우픽 화곡동지점,서울특별시 강서구 가로공원로76길 94,서울특별시 강서구 화곡동 359-24 지하1층 ,서울특별시 강서구 화곡동 359-24,126.838700603144,37.5330339530834,
커피기술,서울특별시 강서구 까치산로18나길 2,서울특별시 강서구 화곡동 965-1 1층 ,서울특별시 강서구 화곡동 965-1,126.849912556522,37.5471689234121,
주택커피,서울특별시 강서구 월정로30길 99,서울특별시 강서구 화곡동 367-18 문성빌딩 1층 ,서울특별시 강서구 화곡동 367-18,126.841204073962,37.5357917027397,
벌툰 까치산역점,서울특별시 강서구 강서로 43,"서울특별시 강서구 화곡동 343-52 도양라비앙타워(지상 2층) 201,2호",서울특별시 강서구 화곡동 343-52,126.846531702129,37.5315215185769,
강서 카페헤이봇 포지티브랩,서울특별시 강서구 양천로 542,서울특별시 강서구 등촌동 629-8 기아자동차강서서비스센터 1층 ,서울특별시 강서구 등촌동 629-8,126.859019177478,37.5585184779024,
디저트A,서울특별시 강서구 화곡로64길 78-5,서울특별시 강서구 등촌동 654-12 101호,서울특별시 강서구 등촌동 654-12,126.857250093438,37.5556114488946,
메가커피 등촌성당점,서울특별시 강서구 공항대로41길 43,서울특별시 강서구 등촌동 696-1 새한프라자 (지상 1층) 103호,서울특별시 강서구 등촌동 696-1,126.845540896294,37.5599073490843,
홍스커피,서울특별시 강서구 까치산로 142,서울특별시 강서구 화곡동 957-23 (지상 1층) 102호,서울특별시 강서구 화곡동 957-23,126.851882967929,37.5499426107622,
아마스빈 까치산역점,서울특별시 강서구 강서로 47,서울특별시 강서구 화곡동 343-31 형진빌딩(지상 1층) ,서울특별시 강서구 화곡동 343-31,126.846339260429,37.5319605060512,
쥬씨차얌 마곡나루점,서울특별시 강서구 마곡중앙로 161-8,서울특별시 강서구 마곡동 757-0 두산더랜드파크 (지상 1층) 112 일부호,서울특별시 강서구 마곡동 757-0,126.827338682565,37.568851450649,
coffee B 커피비,서울특별시 강서구 공항대로 209,서울특별시 강서구 마곡동 774-1 마곡GMG엘스타(지상 1층) 118호,서울특별시 강서구 마곡동 774-1,126.830889417254,37.5597527538278,
쉐드커피(Shed coffee),서울특별시 강서구 마곡중앙6로 16,서울특별시 강서구 마곡동 773-2 마곡지엠지타워(지상 1층) 114호,서울특별시 강서구 마곡동 773-2,126.829006208171,37.5604015515818,
오슬로우,서울특별시 강서구 마곡중앙6로 45,서울특별시 강서구 마곡동 772-5 리더스퀘어마곡 1층 114호,서울특별시 강서구 마곡동 772-5,126.832720625607,37.5606312206415,
힐 베이글,서울특별시 강서구 공항대로 195,서울특별시 강서구 마곡동 773-3 힐스테이트에코동익 ,서울특별시 강서구 마곡동 773-3,126.829169795133,37.5598879504334,
빌리엔젤 마곡역점,서울특별시 강서구 마곡중앙로 56,"서울특별시 강서구 마곡동 799-5 1층 114호, 115호, 2층 215호, 216호 ",서울특별시 강서구 마곡동 799-5,126.827145531382,37.5584846762004,
빽다방 화곡역점,서울특별시 강서구 화곡로25길 2,서울특별시 강서구 화곡동 1065-1 106호,서울특별시 강서구 화곡동 1065-1,126.838497275306,37.5413831475011,
행복나무카페,서울특별시 강서구 강서로 193,서울특별시 강서구 화곡동 1032-18 ,서울특별시 강서구 화곡동 1032-18,126.838305757944,37.543351477505,
구도커피로스터스,서울특별시 강서구 등촌로35길 121,서울특별시 강서구 등촌동 565-18 1~2층 ,서울특별시 강서구 등촌동 565-18,126.862984349148,37.53769306101,
카페드테니스,서울특별시 강서구 방화대로31길 8,서울특별시 강서구 방화동 247-177 1층 ,서울특별시 강서구 방화동 247-177,126.816022305576,37.5681951924362,
메가 엠지씨 커피 신방화역점,서울특별시 강서구 마곡중앙5로 87,서울특별시 강서구 마곡동 739-2 우성르보아투 1층 101호 ,서울특별시 강서구 마곡동 739-2,126.817774634056,37.5671748308356,
심플매터(simple matter) 커피 로스터스(coffee roasters),서울특별시 강서구 강서로7길 31,서울특별시 강서구 화곡동 901-27 태양빌딩(지상 1층) ,서울특별시 강서구 화곡동 901-27,126.84600845356,37.5293702390723,
삼층다방,서울특별시 강서구 마곡중앙6로 11,서울특별시 강서구 마곡동 771-3 보타닉파크타워3 301호,서울특별시 강서구 마곡동 771-3,126.828842430746,37.5609479484261,
컴포즈커피 마곡리더스퀘어점,서울특별시 강서구 마곡중앙6로 45,서울특별시 강서구 마곡동 772-5 리더스퀘어마곡 1층 128호,서울특별시 강서구 마곡동 772-5,126.832720625607,37.5606312206415,
"카페,리멤버",서울특별시 강서구 공항대로 228,서울특별시 강서구 마곡동 800-5 112호,서울특별시 강서구 마곡동 800-5,126.832674163293,37.5586327456572,
진심커피 발산점,서울특별시 강서구 마곡중앙8로 86,서울특별시 강서구 마곡동 795-1 필네이처(지상 1층) 109호,서울특별시 강서구 마곡동 795-1,126.836924074085,37.5606236765156,
시나본 이대서울병원점,서울특별시 강서구 공항대로 260,서울특별시 강서구 마곡동 808 이화의대부속서울병원 지하1층 ,서울특별시 강서구 마곡동 808,126.836266829117,37.5572628621214,
카페소미,서울특별시 강서구 등촌로51길 10,서울특별시 강서구 등촌동 509-9 1층 ,서울특별시 강서구 등촌동 509-9,126.862825902218,37.5490178015808,
웰빙쌀빵 가양역,서울특별시 강서구 양천로 지하 485,서울특별시 강서구 가양동 14-61 가양역 지하1층 ,서울특별시 강서구 가양동 14-61,126.854388254338,37.5615542602435,
메가엠지씨커피 마곡중앙점,서울특별시 강서구 마곡동로 62,서울특별시 강서구 마곡동 796-3 마곡사이언스타워 111호,서울특별시 강서구 마곡동 796-3,126.833890184435,37.5605537644679,
곰숲 카페,서울특별시 강서구 강서로 471,서울특별시 강서구 마곡동 776-4 엠코지니어스타(지상 1층) B동 109호,서울특별시 강서구 마곡동 776-4,126.840573315951,37.5674482048077,
커피베이 염창동투웨니퍼스트점,서울특별시 강서구 공항대로81길 35,서울특별시 강서구 염창동 262 염창투웨니퍼스트(지상 1층) 102호,서울특별시 강서구 염창동 262,126.875980683978,37.5487624118529,
토프레소(호서 발산점),서울특별시 강서구 강서로56가길 63,서울특별시 강서구 등촌동 679-2 서우빌딩 102호,서울특별시 강서구 등촌동 679-2,126.840314641672,37.5623726388411,
메가엠지씨커피발산중앙점,서울특별시 강서구 우장산로2길 49,서울특별시 강서구 내발산동 703 (지상 1층) ,서울특별시 강서구 내발산동 703,126.83723400201,37.5525410841355,
컴포즈커피(마곡퀸즈파크나인점),서울특별시 강서구 공항대로 247,서울특별시 강서구 마곡동 797-1 퀸즈파크나인 125호,서울특별시 강서구 마곡동 797-1,126.83523920295,37.5593135416408,
커피에반하다,서울특별시 강서구 공항대로 164,서울특별시 강서구 마곡동 798-2 류마타워 113호,서울특별시 강서구 마곡동 798-2,126.825514827621,37.5593259702511,
남대문커피,서울특별시 강서구 공항대로 247,서울특별시 강서구 마곡동 797-1 퀸즈파크나인 4층 C동 407호,서울특별시 강서구 마곡동 797-1,126.83523920295,37.5593135416408,
슈가플래닛,서울특별시 강서구 방화대로34길 102,서울특별시 강서구 방화동 192-3 1층 ,서울특별시 강서구 방화동 192-3,126.821904173309,37.5712183984446,
쿠즈베리얼반,서울특별시 강서구 공항대로 164,서울특별시 강서구 마곡동 798-2 류마타워 112호,서울특별시 강서구 마곡동 798-2,126.825514827621,37.5593259702511,
노력스터디카페 까치산역점,서울특별시 강서구 강서로 47-8,서울특별시 강서구 화곡동 343-6 2층 ,서울특별시 강서구 화곡동 343-6,126.845871655224,37.5320188221345,
팔공티(강서점),서울특별시 강서구 강서로45길 28,서울특별시 강서구 내발산동 722-15 1층 107호,서울특별시 강서구 내발산동 722-15,126.834582814344,37.5480776425205,
커피 앤 플레이스(coffee and place),서울특별시 강서구 곰달래로 69,서울특별시 강서구 화곡동 425-25 (지상 1층) 102호,서울특별시 강서구 화곡동 425-25,126.84035506809,37.5303137384859,
젤르(ZELE),서울특별시 강서구 양천로 390,서울특별시 강서구 가양동 56-2 강서오토플랙스 자동차매매센터(지상 1층) 101호,서울특별시 강서구 가양동 56-2,126.84494965594,37.5657998966174,
커피온리 증미역사점,서울특별시 강서구 양천로 지하 560,서울특별시 강서구 등촌동 666-40 증미역 9호선(지하 2층) 1호,서울특별시 강서구 등촌동 666-40,126.861246868802,37.5577194101414,
매머드 익스프레스 마곡그랑트윈타워점,서울특별시 강서구 마곡중앙4로 18,서울특별시 강서구 마곡동 799-9 마곡그랑트윈타워 B동 105호,서울특별시 강서구 마곡동 799-9,126.828619803537,37.5585262889813,
진심커피 마곡점,서울특별시 강서구 공항대로 186,서울특별시 강서구 마곡동 799-1 120호,서울특별시 강서구 마곡동 799-1,126.827995667592,37.5590996762805,
메가엠지씨커피 양천향교역점,서울특별시 강서구 강서로 471,서울특별시 강서구 마곡동 776-4 엠코지니어스타 A동 105호,서울특별시 강서구 마곡동 776-4,126.840573315951,37.5674482048077,
메종드올리,서울특별시 강서구 공항대로 308-7,서울특별시 강서구 내발산동 648-1 102호,서울특별시 강서구 내발산동 648-1,126.842157054073,37.5577012894316,
아임일리터 (마곡점),서울특별시 강서구 마곡중앙6로 21,서울특별시 강서구 마곡동 771-4 이너매스 마곡 1층 116호 ,서울특별시 강서구 마곡동 771-4,126.829618546018,37.560835635621,
이디야커피(강서가양동점),서울특별시 강서구 강서로 511,서울특별시 강서구 가양동 192-9 한림타운 102호,서울특별시 강서구 가양동 192-9,126.841469246972,37.5710165391584,
파스쿠찌 까치산역점,서울특별시 강서구 곰달래로 134,서울특별시 강서구 화곡동 897-14 1~3층 ,서울특별시 강서구 화곡동 897-14,126.84782460948,37.5304749675808,
커피588,서울특별시 강서구 강서로7길 147,서울특별시 강서구 화곡동 935-15 102호,서울특별시 강서구 화곡동 935-15,126.839477507901,37.5285575797842,
방화동커피,서울특별시 강서구 양천로 97,서울특별시 강서구 방화동 286-20 강서신협(지상 4층) ,서울특별시 강서구 방화동 286-20,126.814763977693,37.5735751326394,
컴포즈커피 가양역점,서울특별시 강서구 양천로 470,"서울특별시 강서구 등촌동 717 그레이스힐(지상 1층), 102(일부)호 ",서울특별시 강서구 등촌동 717,126.852482159998,37.562064740914,
펠어커피초코,서울특별시 강서구 강서로 399,서울특별시 강서구 마곡동 793-8 마곡하이마루(지상 1층) 108호,서울특별시 강서구 마곡동 793-8,126.838664152845,37.5612907317812,
올인커피,서울특별시 강서구 공항대로 212,서울특별시 강서구 마곡동 800-1 문영 퀸즈파크11차 5층 501호,서울특별시 강서구 마곡동 800-1,126.831007635455,37.5588248070734,
컴포즈커피 방화역점,서울특별시 강서구 금낭화로 135,서울특별시 강서구 방화동 829-4 금강프라자빌딩(지상 1층) 135호,서울특별시 강서구 방화동 829-4,126.812438073591,37.5774450106613,
메가엠지씨커피 강서한강자이타워점,서울특별시 강서구 양천로 401,서울특별시 강서구 가양동 1498 강서한강자이타워 1층 B동 106호,서울특별시 강서구 가양동 1498,126.84764409296,37.5657010514328,
소니디자인,서울특별시 강서구 강서로47나길 24,서울특별시 강서구 내발산동 709-5 1층 103호,서울특별시 강서구 내발산동 709-5,126.834764934544,37.5516981055553,
커피수작,서울특별시 강서구 마곡중앙로 161-17,서울특별시 강서구 마곡동 759-3 보타닉파크타워Ⅰ 114호,서울특별시 강서구 마곡동 759-3,126.825960812712,37.5680581740122,
조은커피,서울특별시 강서구 공항대로59길 8,서울특별시 강서구 등촌동 648 우현빌딩 402호,서울특별시 강서구 등촌동 648,126.864033073351,37.5520397927141,
긱스타 PC cafe,서울특별시 강서구 공항대로 194,서울특별시 강서구 마곡동 799-3 문영 퀸즈파크12차 B103호 ,서울특별시 강서구 마곡동 799-3,126.829034127455,37.5589809916906,
블레스인커피,서울특별시 강서구 공항대로 190,서울특별시 강서구 마곡동 799-2 (지상 1층) 113호,서울특별시 강서구 마곡동 799-2,126.828637182941,37.5590423146669,
할리스커피 마곡나인스퀘어점,서울특별시 강서구 공항대로 206,"서울특별시 강서구 마곡동 800 나인스퀘어 101,102,103호 ",서울특별시 강서구 마곡동 800,126.830272839065,37.5588934901654,
이디야커피 등촌중앙점,서울특별시 강서구 등촌로 67,서울특별시 강서구 등촌동 566-26 컴스웨이빌딩 1층 ,서울특별시 강서구 등촌동 566-26,126.863121025851,37.5360859259398,
인라이크(InLike),서울특별시 강서구 양천로30길 103,서울특별시 강서구 마곡동 348-3 화성빌딩 103호,서울특별시 강서구 마곡동 348-3,126.822810946993,37.5686106635662,
구스,서울특별시 강서구 마곡중앙로 59-11,서울특별시 강서구 마곡동 798-8 엠비즈타워 207호,서울특별시 강서구 마곡동 798-8,126.82527641154,37.5588673711048,
탐앤탐즈 강서구청점,서울특별시 강서구 화곡로 311,서울특별시 강서구 화곡동 998-1 (지상 1~2층) ,서울특별시 강서구 화곡동 998-1,126.849524456487,37.5521020227336,
커피타임(Coffee time),서울특별시 강서구 방화동로 39-1,서울특별시 강서구 방화동 614-77 (지상 1층) ,서울특별시 강서구 방화동 614-77,126.810962691811,37.5643073358327,
요거트 포켓,서울특별시 강서구 강서로45라길 36,서울특별시 강서구 내발산동 720 108호 ,서울특별시 강서구 내발산동 720,126.834335645065,37.5492641802799,
디저트레오,서울특별시 강서구 공항대로49길 5-13,서울특별시 강서구 등촌동 654-19 (지상 1층) ,서울특별시 강서구 등촌동 654-19,126.857057410628,37.5551696371892,
메가엠지씨커피 염창역점,서울특별시 강서구 공항대로 629,서울특별시 강서구 염창동 282-22 (지상 1층) ,서울특별시 강서구 염창동 282-22,126.87486403523,37.5472459349377,
Thumb's(썸스 도시락),서울특별시 강서구 공항대로 186,서울특별시 강서구 마곡동 799-1 로뎀타워 1층 122호,서울특별시 강서구 마곡동 799-1,126.827995667592,37.5590996762805,
까페루아,서울특별시 강서구 공항대로46길 13-7,서울특별시 강서구 화곡동 1114-1 대명스카이(지상 1층) 101호,서울특별시 강서구 화곡동 1114-1,126.853634409197,37.5542312898864,
더 벤티(마곡수명산점),서울특별시 강서구 수명로 78,서울특별시 강서구 내발산동 750-2 새롬프라자 1층 103호,서울특별시 강서구 내발산동 750-2,126.826339474914,37.553024265332,
또다른여행,서울특별시 강서구 마곡중앙2로 35,"서울특별시 강서구 마곡동 800-15 이너매스마곡2(지상 8층), 809~810호 ",서울특별시 강서구 마곡동 800-15,126.830701684307,37.5579376984303,
커피베이가양더리브점,서울특별시 강서구 양천로 400-12,서울특별시 강서구 가양동 54-6 더리브골드타워 105호,서울특별시 강서구 가양동 54-6,126.84575653524,37.565327390436,
박스 프레소 마곡점 bacs presso magok,서울특별시 강서구 마곡중앙6로 45,서울특별시 강서구 마곡동 772-5 리더스퀘어마곡 1층 108호,서울특별시 강서구 마곡동 772-5,126.832720625607,37.5606312206415,
봄날,서울특별시 강서구 양천로 400-12,서울특별시 강서구 가양동 54-6 더리브골드타워(지상 1층) 114호,서울특별시 강서구 가양동 54-6,126.84575653524,37.565327390436,
카페 문,서울특별시 강서구 강서로 295,서울특별시 강서구 내발산동 701-4 의)성삼의료재단미즈메디병원 본관2층 ,서울특별시 강서구 내발산동 701-4,126.835857296727,37.5521827438563,
나비카페,서울특별시 강서구 강서로 439,서울특별시 강서구 마곡동 784-8 벨리오 1층 103호,서울특별시 강서구 마곡동 784-8,126.839809508602,37.5648014888864,
카페드렌(cafe' de Reine),서울특별시 강서구 강서로45길 49-10,서울특별시 강서구 내발산동 714-8 102호,서울특별시 강서구 내발산동 714-8,126.832944735388,37.5474950036947,
컴포즈커피 마곡리더스타워점,서울특별시 강서구 공항대로 228,서울특별시 강서구 마곡동 800-5 104호,서울특별시 강서구 마곡동 800-5,126.832674163293,37.5586327456572,
예맛당,서울특별시 강서구 양천로 564,서울특별시 강서구 등촌동 631 등촌동두산위브센티움 222호,서울특별시 강서구 등촌동 631,126.861331339109,37.5570868295233,
빽다방 강서블루나인점,서울특별시 강서구 양천로 583,서울특별시 강서구 염창동 240-21 우림블루나인비즈니스센터 B109호,서울특별시 강서구 염창동 240-21,126.864347419732,37.5571161918617,
카페루앤비 마곡수명점,서울특별시 강서구 수명로 31,서울특별시 강서구 내발산동 754-2 하버드아카데미(지상 1층) 103호,서울특별시 강서구 내발산동 754-2,126.823146836052,37.5497727833095,
이디야 공진초점,서울특별시 강서구 마곡중앙1로 26,"서울특별시 강서구 마곡동 798-12 마곡엠리체 101,102호 ",서울특별시 강서구 마곡동 798-12,126.823855000993,37.5586282971172,
메가엠지씨커피 목동사거리점,서울특별시 강서구 곰달래로 272,서울특별시 강서구 화곡동 781-13 1층 102호,서울특별시 강서구 화곡동 781-13,126.863175330319,37.5321869103468,
파머스빈 염창점,서울특별시 강서구 공항대로 583,서울특별시 강서구 염창동 309 e편한세상 ,서울특별시 강서구 염창동 309,126.870242587286,37.5485922640411,
빵팔구,서울특별시 강서구 화곡로 330,서울특별시 강서구 화곡동 1116-3 1층 B호,서울특별시 강서구 화곡동 1116-3,126.851201437059,37.553270128542,
커피링거,서울특별시 강서구 공항대로 219,서울특별시 강서구 마곡동 774-3 센테니아 1층 122호,서울특별시 강서구 마곡동 774-3,126.83201084043,37.5596348826715,
하삼동 서울 마곡점,서울특별시 강서구 공항대로 194,서울특별시 강서구 마곡동 799-3 문영 퀸즈파크12차(지상 1층) 104호,서울특별시 강서구 마곡동 799-3,126.829034127455,37.5589809916906,
라루라루,서울특별시 강서구 공항대로53길 16,서울특별시 강서구 등촌동 644-44 정방빌딩 102호,서울특별시 강서구 등촌동 644-44,126.859915246767,37.5541443039438,
카페희다 마곡점,서울특별시 강서구 마곡동로3길 26,서울특별시 강서구 마곡동 774-5 랑데르2 (지상 1층) 101호,서울특별시 강서구 마곡동 774-5,126.830520236383,37.5601974065541,
클라쓰,서울특별시 강서구 공항대로53가길 4,서울특별시 강서구 등촌동 643-74 1층 ,서울특별시 강서구 등촌동 643-74,126.859695288021,37.5542403593698,
아임일리터,서울특별시 강서구 방화동로 92,서울특별시 강서구 방화동 249-153 에스메디컬(지상 1층) 101~102호 ,서울특별시 강서구 방화동 249-153,126.813015105953,37.5686086193393,
오뉴월,서울특별시 강서구 마곡중앙로 59-17,서울특별시 강서구 마곡동 798-6 류마타워2  1층 116호,서울특별시 강서구 마곡동 798-6,126.824795871557,37.5589090959127,
다정다감,서울특별시 강서구 마곡중앙6로 45,서울특별시 강서구 마곡동 772-5 리더스퀘어마곡 1층 110호,서울특별시 강서구 마곡동 772-5,126.832720625607,37.5606312206415,
행복한 꽃 이야기,서울특별시 강서구 송정로 33,서울특별시 강서구 공항동 59-3 2층 ,서울특별시 강서구 공항동 59-3,126.811177281886,37.5578090688612,
돌체테이블,서울특별시 강서구 강서로 433,서울특별시 강서구 마곡동 784-9 마곡오드카운티2차 1층 117호 ,서울특별시 강서구 마곡동 784-9,126.839657569467,37.5643984476205,
파머스빈 마곡점,서울특별시 강서구 공항대로 237,서울특별시 강서구 마곡동 797 1층 119호,서울특별시 강서구 마곡동 797,126.833912548403,37.5594526887597,
매머드익스프레스 류마타워점,서울특별시 강서구 공항대로 164,서울특별시 강서구 마곡동 798-2 류마타워 1층 119호 ,서울특별시 강서구 마곡동 798-2,126.825514827621,37.5593259702511,
마카롱 드 쌤,서울특별시 강서구 곰달래로 228,서울특별시 강서구 화곡동 840-13 (지상 1층) ,서울특별시 강서구 화곡동 840-13,126.858239087599,37.5316032765437,
컴포즈 커피,서울특별시 강서구 공항대로 200,서울특별시 강서구 마곡동 799-4 마곡지웰타워 1층 113호 ,서울특별시 강서구 마곡동 799-4,126.829473076046,37.5589625253663,
아타락시아,서울특별시 강서구 양천로 344,서울특별시 강서구 마곡동 776-2 마곡센트럴대방디엠시티오피스텔 1층 119호,서울특별시 강서구 마곡동 776-2,126.840359563104,37.5682660192783,
카페 써스데이(cafe thursday),서울특별시 강서구 방화대로40길 36,"서울특별시 강서구 방화동 184-60 지상1,2층 ",서울특별시 강서구 방화동 184-60,126.818816590425,37.5708993433577,
아메리칸에그샌드 롯데몰김포공항점,서울특별시 강서구 하늘길 38,"서울특별시 강서구 방화동 886 김포공항, 롯데몰, 스카이시티 ",서울특별시 강서구 방화동 886,126.80296035927,37.5713698504776,
홀론카페(hoLon cafe),서울특별시 강서구 화곡로68길 102,서울특별시 강서구 등촌동 637 서울시니어스가양타워 1층 102호,서울특별시 강서구 등촌동 637,126.859331594729,37.5569887781271,
이디야 파인스퀘어점,서울특별시 강서구 마곡중앙4로 22,서울특별시 강서구 마곡동 799-11 파인스퀘어 1층 A 124~126호 ,서울특별시 강서구 마곡동 799-11,126.829009917866,37.5582829549403,
카페다수니 내발산점,서울특별시 강서구 강서로 308,서울특별시 강서구 내발산동 677-9 신양빌딩 1층 ,서울특별시 강서구 내발산동 677-9,126.836799948563,37.5531353232807,
아메리칸트레일러 롯데몰 김포공항점,서울특별시 강서구 하늘길 38,"서울특별시 강서구 방화동 886 김포공항, 롯데몰, 스카이시티,MF(지하1)층 ",서울특별시 강서구 방화동 886,126.80296035927,37.5713698504776,
컴포즈커피 마곡류마타워점,서울특별시 강서구 공항대로 164,"서울특별시 강서구 마곡동 798-2 류마타워,1층 120호",서울특별시 강서구 마곡동 798-2,126.825514827621,37.5593259702511,
에그드랍 마곡역점,서울특별시 강서구 공항대로 190,서울특별시 강서구 마곡동 799-2 1층 105호,서울특별시 강서구 마곡동 799-2,126.828637182941,37.5590423146669,
나무곁에 서서,서울특별시 강서구 강서로76길 19,서울특별시 강서구 가양동 146-47 1층 ,서울특별시 강서구 가양동 146-47,126.842627715252,37.5693429601301,
커피메이드,서울특별시 강서구 송정로 57,서울특별시 강서구 공항동 52-15 가야주류(지상 1층) ,서울특별시 강서구 공항동 52-15,126.809909145261,37.5599439258033,
컴포즈커피 마곡수명산점,서울특별시 강서구 수명로 72,서울특별시 강서구 내발산동 750-6 발산신성프라자 1층 102호,서울특별시 강서구 내발산동 750-6,126.826125317295,37.5524085692206,
고요베이크샵,서울특별시 강서구 강서로12길 32,서울특별시 강서구 화곡동 342-7 인터시티빌라 1층 101호,서울특별시 강서구 화곡동 342-7,126.848711806073,37.5318252656488,
온오프커피(ON OFF COFFEE),서울특별시 강서구 송정로 51,서울특별시 강서구 공항동 60-118 대성빌딩 1층 101호 ,서울특별시 강서구 공항동 60-118,126.810129336098,37.5594313432507,
생각나는 샌드위치 & 빙수카페,서울특별시 강서구 강서로29길 82,서울특별시 강서구 화곡동 380-11 블루힐 1층 101호 ,서울특별시 강서구 화곡동 380-11,126.837499453449,37.5383290135013,
카페 보라,서울특별시 강서구 양천로 376,서울특별시 강서구 가양동 99-2 델타빌딩 1층 101B호,서울특별시 강서구 가양동 99-2,126.843816997466,37.566818960824,
다르투아,서울특별시 강서구 화곡로 183,서울특별시 강서구 화곡동 1063-10 (지상 1층) 101호,서울특별시 강서구 화곡동 1063-10,126.841535102195,37.542435575248,
메가엠지씨커피 이대서울병원점,서울특별시 강서구 강서로 349,서울특별시 강서구 내발산동 654-4 1층 13호,서울특별시 강서구 내발산동 654-4,126.837392387854,37.5568874407015,
아르미안,서울특별시 강서구 화곡로55길 21,서울특별시 강서구 화곡동 996-6 1층 ,서울특별시 강서구 화곡동 996-6,126.848651875638,37.5525764538724,
로또카페,서울특별시 강서구 강서로74길 3,서울특별시 강서구 가양동 129-15 가양빌딩(지상 1층) 6호,서울특별시 강서구 가양동 129-15,126.841499180615,37.5678949033301,
텐퍼센트커피 양천향교점,서울특별시 강서구 강서로 471,서울특별시 강서구 마곡동 776-4 엠코지니어스타 A동 1층 107호 ,서울특별시 강서구 마곡동 776-4,126.840573315951,37.5674482048077,
그라나다카페2호점 강서농수산식품공사점,서울특별시 강서구 발산로 40,서울특별시 강서구 외발산동 427 강서농산물시장 1층 관리트럭판매동 1-2호,서울특별시 강서구 외발산동 427,126.822862769588,37.5553770091343,
25 브릭스(brix),서울특별시 강서구 마곡중앙2로 35,서울특별시 강서구 마곡동 800-15 이너매스마곡2 2층 223호,서울특별시 강서구 마곡동 800-15,126.830661784149,37.5579650314969,
빽다방 송정역점,서울특별시 강서구 공항대로 23,서울특별시 강서구 공항동 45-39 (지상 1층) ,서울특별시 강서구 공항동 45-39,126.80981824952,37.5617298228695,
티오르카페,서울특별시 강서구 마곡중앙로 76,서울특별시 강서구 마곡동 773 힐스테이트에코마곡역 302호,서울특별시 강서구 마곡동 773,126.827508501448,37.5603955888014,
올디스커피 ALL THIS COFFEE,서울특별시 강서구 양천로 583,서울특별시 강서구 염창동 240-21 우림블루나인비즈니스센터 지하1층 B112호,서울특별시 강서구 염창동 240-21,126.864347419732,37.5571161918617,
만남의 장소 (방신카페),서울특별시 강서구 방화동로 124-1,서울특별시 강서구 방화동 567-35 2층 ,서울특별시 강서구 방화동 567-35,126.812215359625,37.5715539612363,
(주)럭키티엔에이치 와플대학 신방화역캠퍼스,서울특별시 강서구 마곡중앙5로 87,서울특별시 강서구 마곡동 739-2 우성르보아투 1층 103호,서울특별시 강서구 마곡동 739-2,126.817774634056,37.5671748308356,
구워봄,서울특별시 강서구 공항대로 227,서울특별시 강서구 마곡동 774-4 마곡센트럴타워Ⅰ 2층 213호,서울특별시 강서구 마곡동 774-4,126.832686373319,37.5596003426585,
커피사피엔스 신방화역점,서울특별시 강서구 마곡중앙5로 87,서울특별시 강서구 마곡동 739-2 우성르보아투 1층 105호,서울특별시 강서구 마곡동 739-2,126.817774634056,37.5671748308356,
랭스터디카페 우장산역점,서울특별시 강서구 강서로 239,서울특별시 강서구 화곡동 1006-10 2층 1호 ,서울특별시 강서구 화곡동 1006-10,126.836000888891,37.5471811454819,
트립커피 남북통합문화센터점,서울특별시 강서구 마곡서1로 56,서울특별시 강서구 마곡동 745 남북통합문화센터 ,서울특별시 강서구 마곡동 745,126.821123303968,37.5617663228194,
컴포즈커피 발산점,서울특별시 강서구 강서로 360,서울특별시 강서구 내발산동 653 솔레드림 106호,서울특별시 강서구 내발산동 653,126.838393605308,37.5576945764491,
홍콩다방 마곡점,서울특별시 강서구 마곡중앙6로 63,서울특별시 강서구 마곡동 796-5 마곡테크노타워(지상 1층) 110호,서울특별시 강서구 마곡동 796-5,126.83439426731,37.5604628413112,
커피사피엔스 마곡나루역점,서울특별시 강서구 마곡중앙로 161-11,서울특별시 강서구 마곡동 760-1 힐스테이트에코마곡나루역라마다앙코르서울 1층 A-108호,서울특별시 강서구 마곡동 760-1,126.826720979429,37.5679745986878,
오아시스,서울특별시 강서구 강서로10길 8,서울특별시 강서구 화곡동 894-19 용윤빌딩 1층 ,서울특별시 강서구 화곡동 894-19,126.848157637827,37.5301611271986,
과일에 반하다. 프루타 신방화점,서울특별시 강서구 마곡서1로 132,서울특별시 강서구 마곡동 736 마곡엠밸리3단지 1층 상가동 101호,서울특별시 강서구 마곡동 736,126.819540401123,37.5684934457023,
코다(CODA),서울특별시 강서구 등촌로13길 59,서울특별시 강서구 화곡동 814-3 1층 ,서울특별시 강서구 화곡동 814-3,126.860242510593,37.5360352519477,
팔공티 롯데슈퍼방화점,서울특별시 강서구 방화대로34길 83,서울특별시 강서구 방화동 187-1 1층 ,서울특별시 강서구 방화동 187-1,126.820937265655,37.5710674609033,
(코코)CoCo cafe,서울특별시 강서구 공항대로36길 126,서울특별시 강서구 내발산동 680-6 천우명덕아파트(지상 1층) 104호,서울특별시 강서구 내발산동 680-6,126.835314234628,37.553042259714,
르와조,서울특별시 강서구 공항대로 237,서울특별시 강서구 마곡동 797 1층 ,서울특별시 강서구 마곡동 797,126.833912548403,37.5594526887597,
자이온 (ZION),서울특별시 강서구 공항대로61길 10-11,"서울특별시 강서구 염창동 273-30 1, 2층 ",서울특별시 강서구 염창동 273-30,126.866091260035,37.5514083831252,
디저트39 화곡역점,서울특별시 강서구 화곡로 135,서울특별시 강서구 화곡동 1067-19 상원빌딩(지상 1층) 104호,서울특별시 강서구 화곡동 1067-19,126.836696038489,37.5409026903888,
뎁스Depth,서울특별시 강서구 초록마을로 56,서울특별시 강서구 화곡동 55-59 1층 ,서울특별시 강서구 화곡동 55-59,126.848781169354,37.5422420816872,
아우어 다이브(OUR DIVE),서울특별시 강서구 공항대로 190,서울특별시 강서구 마곡동 799-2 푸리마타워 ,서울특별시 강서구 마곡동 799-2,126.828637182941,37.5590423146669,
터치카페 마곡나루점,서울특별시 강서구 마곡중앙로 161-11,서울특별시 강서구 마곡동 760-1 힐스테이트에코마곡나루역라마다앙코르서울 A동 109호,서울특별시 강서구 마곡동 760-1,126.826720979429,37.5679745986878,
갤러리카페 무크몽크,서울특별시 강서구 공항대로 376,서울특별시 강서구 화곡동 1093-76 KBS스포츠월드 ,서울특별시 강서구 화곡동 1093-76,126.84719334651,37.5568482740514,
바빈스 가양점,서울특별시 강서구 양천로 396,서울특별시 강서구 가양동 57-11 호성 스카이 ,서울특별시 강서구 가양동 57-11,126.845571502692,37.5657514272168,
아아수혈,서울특별시 강서구 공항대로46길 97,서울특별시 강서구 화곡동 1118-3 유정빌딩 103호,서울특별시 강서구 화곡동 1118-3,126.850869810561,37.5518695603647,
로비카페,서울특별시 강서구 강서로 307,서울특별시 강서구 내발산동 678-7 서울스타병원빌딩 1층 105호,서울특별시 강서구 내발산동 678-7,126.836227554297,37.5532303968282,
컴포즈커피 내발산점,서울특별시 강서구 강서로48길 9,서울특별시 강서구 내발산동 677-12 (지상 1층) ,서울특별시 강서구 내발산동 677-12,126.83698837534,37.5527200437142,
텐퍼센트커피 마곡나루점,서울특별시 강서구 마곡중앙5로 6,서울특별시 강서구 마곡동 760 마곡나루역보타닉푸르지오시티(지상 1층) 132호,서울특별시 강서구 마곡동 760,126.827554917518,37.5673140391214,
메가엠지씨커피 강서구청점,서울특별시 강서구 화곡로 326,서울특별시 강서구 화곡동 1117-18 1층~중2층 ,서울특별시 강서구 화곡동 1117-18,126.850806271393,37.5528039945261,
더플롯커피(마곡나루점),서울특별시 강서구 마곡중앙로 161-17,서울특별시 강서구 마곡동 759-3 보타닉파크타워Ⅰ 1층 112호,서울특별시 강서구 마곡동 759-3,126.825960812712,37.5680581740122,
커피 상담원,서울특별시 강서구 양천로30길 22,서울특별시 강서구 마곡동 326-17 1층 ,서울특별시 강서구 마곡동 326-17,126.822572830112,37.5721720262735,
수애 · 더 챔플,서울특별시 강서구 곰달래로49길 31,서울특별시 강서구 화곡동 832-7 1층 ,서울특별시 강서구 화곡동 832-7,126.857473214879,37.5331142334908,
커피브라더 발산점,서울특별시 강서구 우장산로4길 9,서울특별시 강서구 내발산동 671-5 제니스타운2차 1층 101호,서울특별시 강서구 내발산동 671-5,126.839644777143,37.5541012155699,
컴포즈커피 화곡중앙시장점,서울특별시 강서구 가로공원로76길 53,서울특별시 강서구 화곡동 370-56 ,서울특별시 강서구 화곡동 370-56,126.837998752306,37.5347819234964,
뚜띠에,서울특별시 강서구 강서로 497,서울특별시 강서구 가양동 154-16 학원빌딩 ,서울특별시 강서구 가양동 154-16,126.841302139033,37.5698567347736,
컴포즈커피 신방화역점,서울특별시 강서구 마곡중앙5로 81,서울특별시 강서구 마곡동 739-3 에스비타운 104호,서울특별시 강서구 마곡동 739-3,126.818597219555,37.5671170824829,
메리제과,서울특별시 강서구 마곡중앙4로 18,서울특별시 강서구 마곡동 799-9 B동 3층 322호,서울특별시 강서구 마곡동 799-9,126.828619803537,37.5585262889813,
이로운 커피,서울특별시 강서구 마곡중앙8로 85,서울특별시 강서구 마곡동 791-9 파인스퀘어Ⅱ 101호,서울특별시 강서구 마곡동 791-9,126.836985456641,37.5611255258819,
이디야 마곡헤리움점,서울특별시 강서구 마곡중앙5로1길 25,서울특별시 강서구 마곡동 758-3 마곡헤리움2차(지상 1층) 108호,서울특별시 강서구 마곡동 758-3,126.826138036672,37.5692420716795,
와플러스트,서울특별시 강서구 등촌로13아길 58,서울특별시 강서구 화곡동 468-9 (지상 1층) ,서울특별시 강서구 화곡동 468-9,126.855861247279,37.5364421029995,
파리의부엌,서울특별시 강서구 마곡중앙로 161-22,서울특별시 강서구 마곡동 758-2 마곡일성트루엘플래닛(지상 1층) 210호,서울특별시 강서구 마곡동 758-2,126.82578514534,37.568638335633,
로이커피,서울특별시 강서구 강서로18길 112,서울특별시 강서구 화곡동 163-37 홍익빌딩 ,서울특별시 강서구 화곡동 163-37,126.851733238685,37.5350353068867,
무드오더,서울특별시 강서구 곰달래로56길 19,서울특별시 강서구 화곡동 788-1 (지상 1층) ,서울특별시 강서구 화곡동 788-1,126.860932108548,37.5311075042936,
카페HBD,서울특별시 강서구 방화대로44길 33,서울특별시 강서구 방화동 182-17 (지상 1층) 101호,서울특별시 강서구 방화동 182-17,126.818059958176,37.5718407996623,
부엔디아(buendia),서울특별시 강서구 마곡중앙6로 65,서울특별시 강서구 마곡동 796-6 지투프라자(지상 1층) 109호,서울특별시 강서구 마곡동 796-6,126.834719405616,37.5604252748897,
카페프렌즈(CafeFRIENDS),서울특별시 강서구 강서로 137,서울특별시 강서구 화곡동 401-12 (지상 1층) ,서울특별시 강서구 화곡동 401-12,126.841812474387,37.5392065865608,
라이크어시네마,서울특별시 강서구 등촌로 169,서울특별시 강서구 등촌동 513-21 1층 일부 ,서울특별시 강서구 등촌동 513-21,126.862007136039,37.5449813664711,
봉명동내커피 양천구1호점,서울특별시 강서구 곰달래로 155-1,서울특별시 강서구 화곡동 391-55 1층 ,서울특별시 강서구 화곡동 391-55,126.850298572597,37.5309134028665,
컴포즈커피 우장산역점,서울특별시 강서구 강서로 261,서울특별시 강서구 내발산동 723 연세내외과의원 1층 4호,서울특별시 강서구 내발산동 723,126.835954853373,37.5491854412348,
아미,서울특별시 강서구 가로공원로76길 30,서울특별시 강서구 화곡동 372-18 신영베르디움A 101호,서울특별시 강서구 화곡동 372-18,126.837205561567,37.5356967891265,
컴포즈커피 강서힐스테이트점,서울특별시 강서구 우현로 16,서울특별시 강서구 화곡동 83-23 주경빌딩(지상 1층) 102호,서울특별시 강서구 화곡동 83-23,126.843820489152,37.5473057232063,
컴포즈커피 까치산시장점,서울특별시 강서구 강서로16길 27,서울특별시 강서구 화곡동 340-31 1층 ,서울특별시 강서구 화곡동 340-31,126.847807973776,37.5331499263295,
마왕커피 홈앤쇼핑,서울특별시 강서구 공항대로 150,서울특별시 강서구 마곡동 798 홈앤쇼핑사옥 2층 ,서울특별시 강서구 마곡동 798,126.824437485995,37.5594663701616,
커피마마,서울특별시 강서구 양천로47길 12,서울특별시 강서구 가양동 257-1 마곡 보타닉 투웨니퍼스트 1층 101동 101호,서울특별시 강서구 가양동 257-1,126.838117426586,37.5709934300988,
해피팜 카페,서울특별시 강서구 마곡중앙5로 지하 9,서울특별시 강서구 마곡동 767-2 마곡중앙광장 14호,서울특별시 강서구 마곡동 767-2,126.82692745642,37.5660114536639,
매머드익스프레스 우림블루나인(38호),서울특별시 강서구 양천로 583,서울특별시 강서구 염창동 240-21 우림블루나인비즈니스센터 112호,서울특별시 강서구 염창동 240-21,126.864347419732,37.5571161918617,
매머드익스프레스 마곡나루점,서울특별시 강서구 마곡중앙5로1길 20,서울특별시 강서구 마곡동 757-3 마곡나루역보타닉비즈타워 111호,서울특별시 강서구 마곡동 757-3,126.826712019131,37.5686664592954,
커피면회소 양천향교역점,서울특별시 강서구 양천로 344,서울특별시 강서구 마곡동 776-2 마곡센트럴대방디엠시티오피스텔 150-1호,서울특별시 강서구 마곡동 776-2,126.840359563104,37.5682660192783,
히든플래닛,서울특별시 강서구 화곡로21길 52,서울특별시 강서구 화곡동 1035-23 1층 ,서울특별시 강서구 화곡동 1035-23,126.836645059949,37.5431086252173,
잠바주스 김포점,서울특별시 강서구 하늘길 233,서울특별시 강서구 공항동 1373-5 골프포트 1층 A동 ,서울특별시 강서구 공항동 1373-5,126.813427440527,37.553505432825,
ileen(카페알린),서울특별시 강서구 강서로47길 19,서울특별시 강서구 내발산동 700 발산시장(지상 1층) ,서울특별시 강서구 내발산동 700,126.835089873721,37.5525039612121,
cafe 희&희,서울특별시 강서구 화곡로61길 122,서울특별시 강서구 등촌동 663-13 1층 ,서울특별시 강서구 등촌동 663-13,126.845791106754,37.5586590756013,
노니카페,서울특별시 강서구 양천로14길 37,서울특별시 강서구 방화동 868 신안네트빌1단지 103호,서울특별시 강서구 방화동 868,126.810297197371,37.5715655807134,
자작나무,서울특별시 강서구 화곡로44길 3,서울특별시 강서구 화곡동 24-18 강서파크뷰 투웨니퍼스트 102호,서울특별시 강서구 화곡동 24-18,126.846944163533,37.5482564919874,
드롭탑 마곡파인스퀘어점,서울특별시 강서구 마곡중앙4로 22,서울특별시 강서구 마곡동 799-11 파인스퀘어 1층 A127호,서울특별시 강서구 마곡동 799-11,126.829009917866,37.5582829549403,
꽃밀,서울특별시 강서구 마곡중앙2로 15,서울특별시 강서구 마곡동 799-17 2동 214호,서울특별시 강서구 마곡동 799-17,126.828538356954,37.5581624385834,
텐퍼센트커피,서울특별시 강서구 마곡중앙4로 22,서울특별시 강서구 마곡동 799-11 파인스퀘어 A동 112호,서울특별시 강서구 마곡동 799-11,126.829009917866,37.5582829549403,
dearday(디어데이),서울특별시 강서구 공항대로8길 46,서울특별시 강서구 공항동 55-116 1층 ,서울특별시 강서구 공항동 55-116,126.812168938357,37.5590708736121,
서울강서시니어클럽 호호실실 케이터링,서울특별시 강서구 강서로 지하 262,서울특별시 강서구 화곡동 1089-3 우장산역 5호선 지하1층 ,서울특별시 강서구 화곡동 1089-3,126.836408931785,37.5490001953873,
얌얌커피,서울특별시 강서구 송정로 38,서울특별시 강서구 공항동 55-36 1층 ,서울특별시 강서구 공항동 55-36,126.811081476579,37.5582802266013,
남대문커피,서울특별시 강서구 마곡동로3길 6,"서울특별시 강서구 마곡동 774-11 NY타워, 1층 107~108호 ",서울특별시 강서구 마곡동 774-11,126.832639349443,37.5600800563689,
컴포즈커피 등촌3동점,서울특별시 강서구 공항대로41길 66,서울특별시 강서구 등촌동 698-1 세신등촌종합상가 132호,서울특별시 강서구 등촌동 698-1,126.846579308762,37.5606317523438,
서양콩차,서울특별시 강서구 강서로 348,서울특별시 강서구 내발산동 657 우장산힐스테이트 상가1동 102-4호,서울특별시 강서구 내발산동 657,126.83808109977,37.5570784073479,
팔공티 (염창점),서울특별시 강서구 양천로69길 19,서울특별시 강서구 염창동 244-15 세우빌딩 1층 ,서울특별시 강서구 염창동 244-15,126.870760219916,37.5534274053442,
에어리 가든,서울특별시 강서구 곰달래로25길 5,서울특별시 강서구 화곡동 342-45 1층 ,서울특별시 강서구 화곡동 342-45,126.848999241394,37.5310068943551,
앤덴커피,서울특별시 강서구 공항대로 195,서울특별시 강서구 마곡동 773-3 힐스테이트에코동익 122호,서울특별시 강서구 마곡동 773-3,126.829169795133,37.5598879504334,
이크 케이크(EEK CAKE),서울특별시 강서구 공항대로 190,서울특별시 강서구 마곡동 799-2 푸리마타워 514호,서울특별시 강서구 마곡동 799-2,126.828637182941,37.5590423146669,
모닐이네 하우스,서울특별시 강서구 양천로 344,서울특별시 강서구 마곡동 776-2 마곡센트럴대방디엠시티오피스텔 1층 113호,서울특별시 강서구 마곡동 776-2,126.840359563104,37.5682660192783,
커피체리,서울특별시 강서구 마곡중앙8로5길 11,서울특별시 강서구 마곡동 791-5 마곡파인스퀘어Ⅲ 106호,서울특별시 강서구 마곡동 791-5,126.837098401629,37.5619100886907,
드디어커피 마곡점,서울특별시 강서구 강서로 447,"서울특별시 강서구 마곡동 784-4 미르웰플러스오피스텔, 1층 112호",서울특별시 강서구 마곡동 784-4,126.840040467869,37.565515930868,
담다,서울특별시 강서구 마곡중앙로 59-11,서울특별시 강서구 마곡동 798-8 엠비즈타워 107호,서울특별시 강서구 마곡동 798-8,126.82527641154,37.5588673711048,
THE LILY 더릴리,서울특별시 강서구 강서로 38,서울특별시 강서구 화곡동 342-58 (지상 1층) ,서울특별시 강서구 화곡동 342-58,126.847319577024,37.531249806941,
이디야커피 내발산점,서울특별시 강서구 강서로 304,"서울특별시 강서구 내발산동 677-11 영종빌딩, 1층 1,2,3호 ",서울특별시 강서구 내발산동 677-11,126.836712906031,37.5527272314626,
파파인(PAPAIN),서울특별시 강서구 마곡중앙1로 10,서울특별시 강서구 마곡동 798-17 119호,서울특별시 강서구 마곡동 798-17,126.825706944818,37.5584775157476,
주니아 마곡점,서울특별시 강서구 마곡중앙1로 10,서울특별시 강서구 마곡동 798-17 121호,서울특별시 강서구 마곡동 798-17,126.825706944818,37.5584775157476,
팝잇 커피브런치디저트분식,서울특별시 강서구 화곡로24길 44,서울특별시 강서구 화곡동 1085-23 (지상 1층) 2호,서울특별시 강서구 화곡동 1085-23,126.838966276894,37.5390744373422,
체르보,서울특별시 강서구 화곡로 176-17,서울특별시 강서구 화곡동 143-40 태민빌딩 2층 201호,서울특별시 강서구 화곡동 143-40,126.841592217641,37.541592677398,
쉬즈베이글 화곡점,서울특별시 강서구 화곡로 196,서울특별시 강서구 화곡동 109-16 102호,서울특별시 강서구 화곡동 109-16,126.843002615908,37.5430172380173,
카페인중독 화곡점,서울특별시 강서구 까치산로4길 65,서울특별시 강서구 화곡동 102-12 (지상 1층) ,서울특별시 강서구 화곡동 102-12,126.846313454748,37.5403456266755,
매머드커피 익스프레스 양천향교역점,서울특별시 강서구 강서로 455,서울특별시 강서구 마곡동 784-2 마곡경동미르웰 1층 101동 117호,서울특별시 강서구 마곡동 784-2,126.840207857669,37.5662122663909,
오우야 에스프레소바 마곡나루점,서울특별시 강서구 마곡중앙로 161-22,서울특별시 강서구 마곡동 758-2 마곡일성트루엘플래닛 117호,서울특별시 강서구 마곡동 758-2,126.82578514534,37.568638335633,
앵글드(Angled),서울특별시 강서구 양천로10길 38,"서울특별시 강서구 방화동 904 신마곡벽산블루밍 상가103동101,102호 ",서울특별시 강서구 방화동 904,126.808641305119,37.571005283099,
카페 비토,서울특별시 강서구 화곡로 416,서울특별시 강서구 등촌동 628-9 가양역 더스카이밸리5차 지식산업센터 132-1호,서울특별시 강서구 등촌동 628-9,126.855419700734,37.5600240146894,
미미쥬빌레,서울특별시 강서구 강서로16길 35,서울특별시 강서구 화곡동 340-27 1층 102호,서울특별시 강서구 화곡동 340-27,126.848180242191,37.533297989325,
컴포즈커피 화곡우장초점,서울특별시 강서구 화곡로 274,"서울특별시 강서구 화곡동 982-17 크라운뷰, 크라운타워 102호",서울특별시 강서구 화곡동 982-17,126.847501435204,37.5488379962383,
테베르 베이크,서울특별시 강서구 마곡중앙6로 21,서울특별시 강서구 마곡동 771-4 이너매스마곡Ⅰ 122호,서울특별시 강서구 마곡동 771-4,126.829618546018,37.560835635621,
칠백상회(카페700),서울특별시 강서구 곰달래로 104,서울특별시 강서구 화곡동 918-21 기룡빌딩 3층 ,서울특별시 강서구 화곡동 918-21,126.844330657306,37.5303059811974,
원카페,서울특별시 강서구 월정로30나길 36,서울특별시 강서구 화곡동 362-170 1층 ,서울특별시 강서구 화곡동 362-170,126.839938094907,37.5333640513478,
더플롯커피,서울특별시 강서구 마곡중앙6로 45,서울특별시 강서구 마곡동 772-5 리더스퀘어마곡 111호,서울특별시 강서구 마곡동 772-5,126.832720625607,37.5606312206415,
탐앤탐스 마곡 이너매스점,서울특별시 강서구 마곡중앙2로 35,"서울특별시 강서구 마곡동 800-15 이너매스마곡Ⅱ 1층 108,1호",서울특별시 강서구 마곡동 800-15,126.830701684307,37.5579376984303,
카페홈즈,서울특별시 강서구 공항대로 220,서울특별시 강서구 마곡동 800-3 우성에스비타워Ⅱ 1층 114호,서울특별시 강서구 마곡동 800-3,126.831765636495,37.5587038045971,
카페인싸,서울특별시 강서구 까치산로20가길 22,서울특별시 강서구 화곡동 960-1 1층 101호,서울특별시 강서구 화곡동 960-1,126.851975494998,37.548704845913,
매머드익스프레스 가양스카이밸리점,서울특별시 강서구 화곡로 416,서울특별시 강서구 등촌동 628-9 가양역 더스카이밸리5차 지식산업센터 138호,서울특별시 강서구 등촌동 628-9,126.855419700734,37.5600240146894,
카페민잇,서울특별시 강서구 방화동로12길 15,서울특별시 강서구 방화동 607-172 1층 103호,서울특별시 강서구 방화동 607-172,126.813479834035,37.5666738380042,
론드리프로젝트 센터스퀘어점,서울특별시 강서구 공항대로 543,서울특별시 강서구 염창동 312 센터스퀘어 1층 101호,서울특별시 강서구 염창동 312,126.866412265444,37.5507388549618,
지에스25 마곡9단지점,서울특별시 강서구 공항대로 103,서울특별시 강서구 마곡동 744 1층 103호,서울특별시 강서구 마곡동 744,126.819165394649,37.5622651046048,
체크 롯데몰 김포공항점,서울특별시 강서구 하늘길 38,서울특별시 강서구 방화동 886 지하1층(MF층) ,서울특별시 강서구 방화동 886,126.80296035927,37.5713698504776,
From Viet(프롬비엣),서울특별시 강서구 공항대로75길 30,서울특별시 강서구 염창동 282 삼정그린코아 1층 상가동 101호,서울특별시 강서구 염창동 282,126.874485166822,37.547856770067,
프레베리,서울특별시 강서구 마곡동로4길 23,"서울특별시 강서구 마곡동 797-12 루체브릿지 1층 101,1호",서울특별시 강서구 마곡동 797-12,126.836199032381,37.5596431100254,
씨유 화곡행복점,서울특별시 강서구 강서로17길 89,서울특별시 강서구 화곡동 421-16 오화주택 1층 102호,서울특별시 강서구 화곡동 421-16,126.840783908516,37.5323090422618,
지에스25 개화행복점,서울특별시 강서구 개화동로23길 35,서울특별시 강서구 방화동 646-101 1층 ,서울특별시 강서구 방화동 646-101,126.807667211449,37.5666610879078,
반달커피 서울마곡점,서울특별시 강서구 공항대로 194,서울특별시 강서구 마곡동 799-3 문영 퀸즈파크12차 111호,서울특별시 강서구 마곡동 799-3,126.829034127455,37.5589809916906,
카페 데일리,서울특별시 강서구 금낭화로 234,서울특별시 강서구 방화동 801 국제청소년센터 1층 ,서울특별시 강서구 방화동 801,126.809574943682,37.579410627883,
컴포즈커피 강서구청점,서울특별시 강서구 화곡로 313,서울특별시 강서구 화곡동 1105-5 1층 ,서울특별시 강서구 화곡동 1105-5,126.849702897388,37.5522837108672,
오슬로우 마곡나루점,서울특별시 강서구 마곡중앙로 161-22,서울특별시 강서구 마곡동 758-2 마곡일성트루엘플래닛 1층 B동 121호,서울특별시 강서구 마곡동 758-2,126.82578514534,37.568638335633,
어울림,서울특별시 강서구 마곡서로 152,서울특별시 강서구 마곡동 759-1 두산더랜드타워 1층 A동 102호,서울특별시 강서구 마곡동 759-1,126.82597944995,37.5676859104888,
스페이스K 서울,서울특별시 강서구 마곡중앙8로 32,서울특별시 강서구 마곡동 772 스페이스K 서울 1층 ,서울특별시 강서구 마곡동 772,126.830974669978,37.5610929270592,
에이 썸,서울특별시 강서구 마곡서로 133,서울특별시 강서구 마곡동 743-4 마곡엠밸리7단지 1층 704동 102호,서울특별시 강서구 마곡동 743-4,126.823838667719,37.5645561030039,
레드플랜트 마곡점,서울특별시 강서구 마곡중앙8로5길 11,서울특별시 강서구 마곡동 791-5 마곡파인스퀘어Ⅲ 1층 101호,서울특별시 강서구 마곡동 791-5,126.837098401629,37.5619100886907,
베라카케이크,서울특별시 강서구 화곡로68길 136-2,서울특별시 강서구 등촌동 636-3 라움 팰리스 지하1층 101호,서울특별시 강서구 등촌동 636-3,126.860954342094,37.5563605431639,
GS25 화곡나누리점,서울특별시 강서구 가로공원로 188,서울특별시 강서구 화곡동 372-2 1층 ,서울특별시 강서구 화곡동 372-2,126.836932420923,37.536897624981,
컴포즈커피 마곡파인스퀘어점,서울특별시 강서구 마곡중앙8로5길 11,서울특별시 강서구 마곡동 791-5 마곡파인스퀘어Ⅲ(지상 1층) 108호,서울특별시 강서구 마곡동 791-5,126.837098401629,37.5619100886907,
어반디저트,서울특별시 강서구 마곡중앙2로 5,서울특별시 강서구 마곡동 799-6 메트로비즈타워 1층 114호,서울특별시 강서구 마곡동 799-6,126.827453842928,37.5584780994004,
씨유 방화리치점,서울특별시 강서구 방화동로 107,서울특별시 강서구 방화동 580-13 1층 ,서울특별시 강서구 방화동 580-13,126.812611915542,37.56996271506,
커피사피엔스 파인스퀘어 마곡,서울특별시 강서구 마곡중앙4로 22,서울특별시 강서구 마곡동 799-11 파인스퀘어 A109호,서울특별시 강서구 마곡동 799-11,126.829009917866,37.5582829549403,
웨알유 커피(WRU Coffee)),서울특별시 강서구 공항대로7길 15,서울특별시 강서구 공항동 22-170 1층 ,서울특별시 강서구 공항동 22-170,126.812275592382,37.5620323455072,
이디야 화곡본동시장점,서울특별시 강서구 까치산로4길 11,서울특별시 강서구 화곡동 98-83 1층 ,서울특별시 강서구 화곡동 98-83,126.844262083668,37.5422274684945,
와플대학 방화역캠퍼스,서울특별시 강서구 금낭화로 136,서울특별시 강서구 방화동 830-1 에어뷰21-2오피스텔 113호,서울특별시 강서구 방화동 830-1,126.812998103224,37.5773556196369,
좋은카페,서울특별시 강서구 마곡중앙로 59-21,"서울특별시 강서구 마곡동 798-5 에이스타워Ⅱ 2층 201,202호",서울특별시 강서구 마곡동 798-5,126.824241089722,37.5588046568145,
어썸밀,서울특별시 강서구 개화동로23길 27,서울특별시 강서구 방화동 648-54 1층 ,서울특별시 강서구 방화동 648-54,126.807229591933,37.5668030917101,
웰시커피,서울특별시 강서구 강서로17길 121,서울특별시 강서구 화곡동 358-8 1층 ,서울특별시 강서구 화곡동 358-8,126.83909798505,37.5321216918483,
컴포즈커피 가양양천초점,서울특별시 강서구 양천로49길 43,서울특별시 강서구 가양동 250-1 1층 102호,서울특별시 강서구 가양동 250-1,126.840427374903,37.5705961730911,
브라이트(bright bake house),서울특별시 강서구 강서로17길 42,서울특별시 강서구 화곡동 353-91 1층 ,서울특별시 강서구 화곡동 353-91,126.843430058046,37.5327619089309,
카페 도란도란,서울특별시 강서구 방화대로7길 48,서울특별시 강서구 공항동 737 1층 ,서울특별시 강서구 공항동 737,126.813546336181,37.5561586048324,
모리셔스브라운 가양홈플러스점,서울특별시 강서구 양천로 431,"서울특별시 강서구 가양동 18-24 홈플러스가양점 X5, YB호 ",서울특별시 강서구 가양동 18-24,126.849960213917,37.5642640468035,
컴포즈커피 강서세무서점,서울특별시 강서구 공항대로 103,서울특별시 강서구 마곡동 744 판매시설2동 103(일부)호 ,서울특별시 강서구 마곡동 744,126.819165394649,37.5622651046048,
로프트 컴퍼니,서울특별시 강서구 마곡중앙2로 35,서울특별시 강서구 마곡동 800-15 이너매스마곡Ⅱ B120호 ,서울특별시 강서구 마곡동 800-15,126.830661784149,37.5579650314969,
메가엠지씨커피 까치산시장점,서울특별시 강서구 강서로18나길 1,서울특별시 강서구 화곡동 339-15 1층 ,서울특별시 강서구 화곡동 339-15,126.847233713621,37.5341860558435,
어썸즈프루트,서울특별시 강서구 양천로 344,서울특별시 강서구 마곡동 776-2 마곡센트럴대방디엠시티오피스텔 B108-1호호,서울특별시 강서구 마곡동 776-2,126.840359563104,37.5682660192783,
씨엘로커피,서울특별시 강서구 방화대로6길 9,서울특별시 강서구 공항동 1355-18 윤근빌딩 1층 우측호,서울특별시 강서구 공항동 1355-18,126.817207273361,37.5550566442747,
매머드익스프레스 우장산롯데캐슬점,서울특별시 강서구 공항대로 382,"서울특별시 강서구 화곡동 1145 우장산롯데캐슬아파트, 1층 106호",서울특별시 강서구 화곡동 1145,126.849547172183,37.5563958430889,
메가엠지씨커피 가양중앙점,서울특별시 강서구 양천로 461,서울특별시 강서구 가양동 1480-8 주영빌딩 1층 106호,서울특별시 강서구 가양동 1480-8,126.852223862157,37.5630457825024,
메가엠지씨커피 화곡남부시장점,서울특별시 강서구 곰달래로49길 11,서울특별시 강서구 화곡동 836-3 1층 ,서울특별시 강서구 화곡동 836-3,126.857567234879,37.5322212753215,
과일바다 화곡점,서울특별시 강서구 가로공원로80길 55,서울특별시 강서구 화곡동 366-59 1층 ,서울특별시 강서구 화곡동 366-59,126.840148115575,37.5349918120878,
쉬즈베이글 발산역점,서울특별시 강서구 마곡중앙8로 90,서울특별시 강서구 마곡동 795-2 마곡아이파크 1층 114호,서울특별시 강서구 마곡동 795-2,126.837593310628,37.5605729719154,
카페센,서울특별시 강서구 개화동로8길 38,서울특별시 강서구 개화동 388-1 1층 3호 ,서울특별시 강서구 개화동 388-1,126.798072277888,37.5791664441084,
카페그리닝,서울특별시 강서구 마곡중앙6로 21,서울특별시 강서구 마곡동 771-4 이너매스마곡Ⅰ1층 129호,서울특별시 강서구 마곡동 771-4,126.829618546018,37.560835635621,
무니,서울특별시 강서구 방화대로40길 13,서울특별시 강서구 방화동 257-14 퓨전익스프레스 2층 ,서울특별시 강서구 방화동 257-14,126.817530980273,37.5709607031757,
빽다방 마곡역로뎀타워점,서울특별시 강서구 공항대로 186,서울특별시 강서구 마곡동 799-1 로뎀타워 1층 127호,서울특별시 강서구 마곡동 799-1,126.827995667592,37.5590996762805,
카페아에 화곡점,서울특별시 강서구 곰달래로24길 12,"서울특별시 강서구 화곡동 899-4 동양하우징, 1층 101호",서울특별시 강서구 화곡동 899-4,126.84678674961,37.530010331159,
팔공티 마곡벨리오점,서울특별시 강서구 강서로 439,서울특별시 강서구 마곡동 784-8 벨리오 114호,서울특별시 강서구 마곡동 784-8,126.839809508602,37.5648014888864,
써니커피,서울특별시 강서구 화곡로 416,서울특별시 강서구 등촌동 628-9 가양역 더스카이밸리5차 지식산업센터 134호,서울특별시 강서구 등촌동 628-9,126.855419700734,37.5600240146894,
커피 바리아르,서울특별시 강서구 화곡로52길 33,서울특별시 강서구 화곡동 980-13 ,서울특별시 강서구 화곡동 980-13,126.850340840863,37.549730463487,
라니크(Ranique),서울특별시 강서구 방화대로6다길 6-16,서울특별시 강서구 공항동 1353-6 2층 ,서울특별시 강서구 공항동 1353-6,126.817179526842,37.5553887987214,
빨라쪼 화곡점(PALAZZO DEL FREDDO),서울특별시 강서구 강서로17길 25,서울특별시 강서구 화곡동 348-21 1층 ,서울특별시 강서구 화곡동 348-21,126.844466327817,37.5326384897099,
바빈스커피 방화점,서울특별시 강서구 양천로24길 21,"서울특별시 강서구 방화동 281-31 지하1층, 1층 ",서울특별시 강서구 방화동 281-31,126.815614566158,37.5723358859265,
빽다방 마곡역류마타워점,서울특별시 강서구 공항대로 164,서울특별시 강서구 마곡동 798-2 류마타워 1층 105호,서울특별시 강서구 마곡동 798-2,126.825514827621,37.5593259702511,
메가엠지씨커피 가양초점,서울특별시 강서구 허준로 198,서울특별시 강서구 가양동 1488 가양프라자 113호,서울특별시 강서구 가양동 1488,126.860254088709,37.5612915907155,
발도스커피 화곡점,서울특별시 강서구 화곡로 342,서울특별시 강서구 화곡동 1111-4 포유 1층 101호,서울특별시 강서구 화곡동 1111-4,126.851747033493,37.5541250502251,
RUNCIBLE CAFE,서울특별시 강서구 공항대로 284,서울특별시 강서구 내발산동 646 1층 ,서울특별시 강서구 내발산동 646,126.839101262993,37.5581849641381,
점핑하이,서울특별시 강서구 마곡서로 133,서울특별시 강서구 마곡동 743-4 마곡엠밸리7단지 704동 203호,서울특별시 강서구 마곡동 743-4,126.823838667719,37.5645561030039,
크로플로 화곡점,서울특별시 강서구 강서로 145,서울특별시 강서구 화곡동 401-1 보눔 하우스 화곡 1층 102호,서울특별시 강서구 화곡동 401-1,126.841415887515,37.5399014458122,
안젤라스,서울특별시 강서구 강서로 348,서울특별시 강서구 내발산동 657 우장산힐스테이트 상가1동 비104호,서울특별시 강서구 내발산동 657,126.83808109977,37.5570784073479,
포미키친 화곡점,서울특별시 강서구 가로공원로 215,서울특별시 강서구 화곡동 379-14 1층 ,서울특별시 강서구 화곡동 379-14,126.839745213917,37.5377949066241,
카페샤르,서울특별시 강서구 마곡서로 152,서울특별시 강서구 마곡동 759-1 두산더랜드타워 1층 A동 115호,서울특별시 강서구 마곡동 759-1,126.82597944995,37.5676859104888,
에스엠 커피숍 S.M. coffee,서울특별시 강서구 양천로57길 9-14,서울특별시 강서구 가양동 1479-7 가양제일프라자 1층 104호,서울특별시 강서구 가양동 1479-7,126.851464062702,37.5638389666009,
Cafe Blessing (블레싱 카페),서울특별시 강서구 양천로24길 70,서울특별시 강서구 방화동 260-5 방화미라클 1층 101호,서울특별시 강서구 방화동 260-5,126.815206478837,37.5701849355306,
메가엠지씨커피 마곡역점(MEGA MGC COFFEE),서울특별시 강서구 공항대로 190,서울특별시 강서구 마곡동 799-2 푸리마타워 1층 107호,서울특별시 강서구 마곡동 799-2,126.828637182941,37.5590423146669,
디저트39(등촌역점),서울특별시 강서구 공항대로 531,서울특별시 강서구 염창동 274-18 한울밸리움 1층 105호,서울특별시 강서구 염창동 274-18,126.865471141449,37.5511356670438,
연이당,서울특별시 강서구 양천로30길 42,서울특별시 강서구 방화동 197-1 1층 ,서울특별시 강서구 방화동 197-1,126.822468063653,37.5713379987955,
커피사피엔스 가양더스카이밸리5차,서울특별시 강서구 화곡로 416,서울특별시 강서구 등촌동 628-9 가양역 더스카이밸리5차 지식산업센터 111호,서울특별시 강서구 등촌동 628-9,126.855419700734,37.5600240146894,
구흐망디즈,서울특별시 강서구 까치산로4길 61,서울특별시 강서구 화곡동 102-11 1층 ,서울특별시 강서구 화곡동 102-11,126.84618602322,37.5404675461391,
메가엠지씨커피 강서등촌점,서울특별시 강서구 공항대로61길 22,서울특별시 강서구 염창동 273-8 1층 ,서울특별시 강서구 염창동 273-8,126.865897784304,37.5519544383823,
카페게이트 강서한강자이점,서울특별시 강서구 양천로 401,서울특별시 강서구 가양동 1498 강서한강자이타워 1층 A동 109-1호,서울특별시 강서구 가양동 1498,126.84764409296,37.5657010514328,
O'Sol plant cafe(오솔식물카페),서울특별시 강서구 공항대로 303,서울특별시 강서구 등촌동 672-5 두드림빌딩 1층 ,서울특별시 강서구 등촌동 672-5,126.841502878735,37.5585095077946,
트리플에이,서울특별시 강서구 공항대로 222,서울특별시 강서구 마곡동 800-4 발산W타워 103호,서울특별시 강서구 마곡동 800-4,126.832173382942,37.5586687054378,
메가엠지씨커피 마곡유림,서울특별시 강서구 강서로 419,서울특별시 강서구 마곡동 793 유림트윈파크 1층 111호,서울특별시 강서구 마곡동 793,126.839209217691,37.5629853472673,
매머드익스프레스 마곡두산더랜드타워점,서울특별시 강서구 마곡서로 152,서울특별시 강서구 마곡동 759-1 두산더랜드타워 A동 105호,서울특별시 강서구 마곡동 759-1,126.82597944995,37.5676859104888,
카페 65(cafe 65),서울특별시 강서구 송정로 65,서울특별시 강서구 공항동 52-11 2층 ,서울특별시 강서구 공항동 52-11,126.809701839905,37.5605955522845,
크로플덕,서울특별시 강서구 강서로47길 165,서울특별시 강서구 내발산동 750-11 신원메디칼프라자 9층 81호,서울특별시 강서구 내발산동 750-11,126.826919545523,37.5534315567653,
샌디얌,서울특별시 강서구 곰달래로49가길 17,서울특별시 강서구 화곡동 821-13 미림 1층 2호,서울특별시 강서구 화곡동 821-13,126.85776261629,37.53454897477,
Lively 라이블리,서울특별시 강서구 강서로 409,서울특별시 강서구 마곡동 793-4 엘리안 1층 108호,서울특별시 강서구 마곡동 793-4,126.838944660007,37.5621650806465,
오니 테이블,서울특별시 강서구 양천로66길 21,서울특별시 강서구 등촌동 633-17 등촌투웨니퍼스트2차 1층 202동 102호,서울특별시 강서구 등촌동 633-17,126.86517577709,37.5540878086392,
카페 커디(CAFE CUDI),서울특별시 강서구 공항대로 247,서울특별시 강서구 마곡동 797-1 퀸즈파크나인 1층 133호,서울특별시 강서구 마곡동 797-1,126.83523920295,37.5593135416408,
과일 프레소,서울특별시 강서구 강서로 349,서울특별시 강서구 내발산동 654-4 1층 7호,서울특별시 강서구 내발산동 654-4,126.837392387854,37.5568874407015,
페이브 강서NC점(FAVE),서울특별시 강서구 강서로56길 17,서울특별시 강서구 등촌동 689 NC 강서점 8층 ,서울특별시 강서구 등촌동 689,126.840498784915,37.559933531546,
달보드레,서울특별시 강서구 까치산로 191,서울특별시 강서구 화곡동 1114-22 신남빌딩 1층 ,서울특별시 강서구 화곡동 1114-22,126.8540134619,37.5542679792389,
Merry-go-round 메리고라운드,서울특별시 강서구 등촌로13다길 32-19,서울특별시 강서구 화곡동 825-1 1층 ,서울특별시 강서구 화곡동 825-1,126.85869318188,37.5354615435668,
해머스미스커피 마곡아이파크점,서울특별시 강서구 마곡중앙8로 90,서울특별시 강서구 마곡동 795-2 마곡아이파크 1층 118호,서울특별시 강서구 마곡동 795-2,126.837593310628,37.5605729719154,
카페오즈,서울특별시 강서구 마곡중앙6로 45,서울특별시 강서구 마곡동 772-5 리더스퀘어마곡 1층 106호,서울특별시 강서구 마곡동 772-5,126.832720625607,37.5606312206415,
크로플덕 오리아가씨,서울특별시 강서구 화곡로24길 60,서울특별시 강서구 화곡동 379-5 102호,서울특별시 강서구 화곡동 379-5,126.839296761799,37.5383992281868,
아이캔커피 마곡점,서울특별시 강서구 강서로56길 56,"서울특별시 강서구 등촌동 671-5 메종드남광 101,102호 ",서울특별시 강서구 등촌동 671-5,126.841831213744,37.5592027241024,
카페 오소,서울특별시 강서구 월정로 128,서울특별시 강서구 화곡동 357-45 1층 ,서울특별시 강서구 화곡동 357-45,126.83820962927,37.5305486829713,
카페 마르멜로,서울특별시 강서구 곰달래로25길 37,서울특별시 강서구 화곡동 341-7 1층 ,서울특별시 강서구 화곡동 341-7,126.848741248332,37.5323163485818,
커피 내음,서울특별시 강서구 곰달래로 225,서울특별시 강서구 화곡동 837-10 1층 104호,서울특별시 강서구 화곡동 837-10,126.858028856534,37.5318536823565,
차오르다,서울특별시 강서구 강서로54길 11,서울특별시 강서구 등촌동 674-2 2층 가동 ,서울특별시 강서구 등촌동 674-2,126.839349532387,37.5594168739297,
슬로프커피,서울특별시 강서구 화곡로68길 149,서울특별시 강서구 등촌동 631-17 DongNam II 101호,서울특별시 강서구 등촌동 631-17,126.861825766383,37.556126496097,
카페로이,서울특별시 강서구 금낭화로 20,서울특별시 강서구 방화동 598-144 호암빌딩 1층 102호,서울특별시 강서구 방화동 598-144,126.81191543914,37.5670763531789,
더 카페 마곡점,서울특별시 강서구 공항대로 212,서울특별시 강서구 마곡동 800-1 문영 퀸즈파크11차 1층 101호,서울특별시 강서구 마곡동 800-1,126.831007635455,37.5588248070734,
Mark 마크,서울특별시 강서구 화곡로26가길 32,서울특별시 강서구 화곡동 1074-2 1층 ,서울특별시 강서구 화곡동 1074-2,126.838334339622,37.540543193548,
텐퍼센트 스페셜티 커피 화곡역점,서울특별시 강서구 강서로 161,서울특별시 강서구 화곡동 1075-12 1층 101호,서울특별시 강서구 화곡동 1075-12,126.840558418071,37.5411333083482,
커피에 꽃을 담다,서울특별시 강서구 마곡동로 161,서울특별시 강서구 마곡동 812 서울식물원 방문자센터 1층 ,서울특별시 강서구 마곡동 812,126.83284283132,37.5722444079878,
메가엠지씨커피 강서세무서점,서울특별시 강서구 공항대로 103,서울특별시 강서구 마곡동 744 마곡 엠밸리 9단지 판매시설2동 104호 ,서울특별시 강서구 마곡동 744,126.819165394649,37.5622651046048,
빈날,서울특별시 강서구 양천로26길 107,서울특별시 강서구 마곡동 222-11 1층 102호,서울특별시 강서구 마곡동 222-11,126.822488309407,37.5728711605902,
카페 에프오(CAFE F5),서울특별시 강서구 공항대로 212,서울특별시 강서구 마곡동 800-1 문영 퀸즈파크11차 1층 119호,서울특별시 강서구 마곡동 800-1,126.831007635455,37.5588248070734,
행복한 푸드,서울특별시 강서구 곰달래로 177,서울특별시 강서구 화곡동 872-17 1층 ,서울특별시 강서구 화곡동 872-17,126.852684618081,37.5311417435513,
망원동 티라미슈,서울특별시 강서구 공항대로 190,서울특별시 강서구 마곡동 799-2 푸리마타워 1층 111호,서울특별시 강서구 마곡동 799-2,126.828637182941,37.5590423146669,
커피사피엔스 발산점,서울특별시 강서구 마곡중앙8로5길 11,서울특별시 강서구 마곡동 791-5 마곡파인스퀘어Ⅲ 1층 111호,서울특별시 강서구 마곡동 791-5,126.837098401629,37.5619100886907,
카페인풀,서울특별시 강서구 마곡중앙로 165,서울특별시 강서구 마곡동 757-5 프라이빗타워타워1차 1층 104호,서울특별시 강서구 마곡동 757-5,126.827697450113,37.5685808655445,
OCAD(오캐드),서울특별시 강서구 공항대로55길 14,서울특별시 강서구 등촌동 645-9 1층 ,서울특별시 강서구 등촌동 645-9,126.860961295904,37.5537142330074,
공차 우장산역점,서울특별시 강서구 강서로 259,서울특별시 강서구 내발산동 723-2 우장산역엠버리움빌딩 104호,서울특별시 강서구 내발산동 723-2,126.835997635372,37.5488727643728,
원스 어 데이,서울특별시 강서구 까치산로 170-1,서울특별시 강서구 화곡동 1132 1층 1호,서울특별시 강서구 화곡동 1132,126.853250965992,37.5523937707421,
메가엠지씨커피 방화중앙점,서울특별시 강서구 방화동로 102,서울특별시 강서구 방화동 249-8 1층 ,서울특별시 강서구 방화동 249-8,126.812998823052,37.5694621054707,
카페게이트 마곡류마타워점,서울특별시 강서구 공항대로 164,서울특별시 강서구 마곡동 798-2 류마타워 1층 114호,서울특별시 강서구 마곡동 798-2,126.825514827621,37.5593259702511,
매니앜,서울특별시 강서구 양천로 344,서울특별시 강서구 마곡동 776-2 마곡센트럴대방디엠시티오피스텔 1층 148-1호,서울특별시 강서구 마곡동 776-2,126.840359563104,37.5682660192783,
플랜 마곡점,서울특별시 강서구 공항대로 219,서울특별시 강서구 마곡동 774-3 센테니아 1층 119호,서울특별시 강서구 마곡동 774-3,126.83201084043,37.5596348826715,
백억커피 본점,서울특별시 강서구 강서로16길 32,서울특별시 강서구 화곡동 341-16 화창빌딩 103호,서울특별시 강서구 화곡동 341-16,126.848125023369,37.5330780742698,
하삼동커피 마곡나루역점,서울특별시 강서구 마곡중앙로 161-11,서울특별시 강서구 마곡동 760-1 힐스테이트에코마곡나루역라마다앙코르서울    1층 A-119호,서울특별시 강서구 마곡동 760-1,126.826720979429,37.5679745986878,
이공커피 화곡점,서울특별시 강서구 등촌로5길 8,서울특별시 강서구 화곡동 775-11 1층 우측점포 맨끝 ,서울특별시 강서구 화곡동 775-11,126.863044326066,37.5334190567966,
스마일스푼 등촌점,서울특별시 강서구 화곡로66길 142,서울특별시 강서구 등촌동 644-1 1층 ,서울특별시 강서구 등촌동 644-1,126.860702563115,37.555004336128,
커피101스트릿(등촌본점),서울특별시 강서구 화곡로66길 76,서울특별시 강서구 등촌동 641-3 1층 ,서울특별시 강서구 등촌동 641-3,126.857420654566,37.5566167169327,
달아달아,서울특별시 강서구 강서로7길 35,서울특별시 강서구 화곡동 901-15 시온빌딩 1층 ,서울특별시 강서구 화곡동 901-15,126.84581514896,37.5293502549465,
커피쿡 발산역점,서울특별시 강서구 강서로56가길 35,서울특별시 강서구 등촌동 678-5 에이치투아이앤티빌딩 1층 ,서울특별시 강서구 등촌동 678-5,126.839951250771,37.561136070692,
제이디공방,서울특별시 강서구 곰달래로47길 19,서울특별시 강서구 화곡동 834-1 1층 103호,서울특별시 강서구 화곡동 834-1,126.857019137106,37.532487939843,
메가엠지씨커피 화곡중앙시장점,서울특별시 강서구 가로공원로76길 73,서울특별시 강서구 화곡동 362-86 1층 ,서울특별시 강서구 화곡동 362-86,126.83855303361,37.5339952987106,
카페게이트 강서염창점,서울특별시 강서구 양천로 696,서울특별시 강서구 염창동 264-10 1층 102호,서울특별시 강서구 염창동 264-10,126.873074153598,37.5499915282084,
마이니모(minymoe),서울특별시 강서구 양천로66길 6,서울특별시 강서구 등촌동 632-4 삼성한사랑1차아파트 1층 105호,서울특별시 강서구 등촌동 632-4,126.863937231668,37.555145780298,
RGB COFFEE,서울특별시 강서구 마곡중앙로 59-17,서울특별시 강서구 마곡동 798-6 류마타워Ⅱ ,서울특별시 강서구 마곡동 798-6,126.824795871557,37.5589090959127,
카페인중독마곡점,서울특별시 강서구 마곡중앙6로 16,서울특별시 강서구 마곡동 773-2 마곡지엠지타워 1층 122호,서울특별시 강서구 마곡동 773-2,126.829006208171,37.5604015515818,
커피사피엔스 등촌 데시앙플렉스점,서울특별시 강서구 양천로 424,서울특별시 강서구 등촌동 14-7 가양역 데시앙플렉스 지식산업센터 126호,서울특별시 강서구 등촌동 14-7,126.847971033372,37.5642277147695,
한담,서울특별시 강서구 양천로 251,"서울특별시 강서구 마곡동 56-22 마곡레포츠센터, 마곡실내배트민턴장 ",서울특별시 강서구 마곡동 56-22,126.832148803205,37.5731554994777,
아브릴 Avril,서울특별시 강서구 마곡서로 175,서울특별시 강서구 마곡동 738 마곡엠밸리4단지 407동 B103호,서울특별시 강서구 마곡동 738,126.824232519697,37.568908134597,
엘리케이커,서울특별시 강서구 마곡중앙5로 6,서울특별시 강서구 마곡동 760 마곡나루역보타닉푸르지오시티 B143호,서울특별시 강서구 마곡동 760,126.827554917518,37.5673140391214,
발도스(방화역점),서울특별시 강서구 금낭화로 145,서울특별시 강서구 방화동 829-5 에어뷰21-1오피스텔 119호,서울특별시 강서구 방화동 829-5,126.812798304593,37.5783009851923,
카카두카페,서울특별시 강서구 마곡동로 161,서울특별시 강서구 마곡동 812 서울식물원 1층 ,서울특별시 강서구 마곡동 812,126.83284283132,37.5722444079878,
국민우유집 마곡나루점,서울특별시 강서구 마곡중앙5로1길 20,서울특별시 강서구 마곡동 757-3 마곡나루역보타닉비즈타워 109호,서울특별시 강서구 마곡동 757-3,126.826712019131,37.5686664592954,
현이담,서울특별시 강서구 공항대로 206,서울특별시 강서구 마곡동 800 나인스퀘어 5층 503호,서울특별시 강서구 마곡동 800,126.830272839065,37.5588934901654,
백억커피 발산점,서울특별시 강서구 강서로 348,서울특별시 강서구 내발산동 657 우장산힐스테이트 상가1동 102-6호,서울특별시 강서구 내발산동 657,126.83808109977,37.5570784073479,
엘리쿠키,서울특별시 강서구 마곡중앙2로 35,서울특별시 강서구 마곡동 800-15 이너매스마곡Ⅱ 4층 422호,서울특별시 강서구 마곡동 800-15,126.830661784149,37.5579650314969,
로지에떼,서울특별시 강서구 마곡중앙로 161-1,서울특별시 강서구 마곡동 760-2 마곡나루역캐슬파크 214호,서울특별시 강서구 마곡동 760-2,126.827453357716,37.5678656599047,
하르당,서울특별시 강서구 강서로 64,서울특별시 강서구 화곡동 340-47 1층 ,서울특별시 강서구 화곡동 340-47,126.846059127334,37.5335037348971,
손만동제과,서울특별시 강서구 공항대로 220,서울특별시 강서구 마곡동 800-3 우성에스비타워Ⅱ 108호,서울특별시 강서구 마곡동 800-3,126.831765636495,37.5587038045971,
데니스커피 마곡점,서울특별시 강서구 강서로 405,서울특별시 강서구 마곡동 793-6 우성르보아 108호,서울특별시 강서구 마곡동 793-6,126.838811250073,37.5618344133539,
아메리칸트레일러 이대서울병원점,서울특별시 강서구 공항대로 260,서울특별시 강서구 마곡동 808 이화의대부속서울병원 ,서울특별시 강서구 마곡동 808,126.836266829117,37.5572628621214,
코너213 corner213,서울특별시 강서구 공항대로 213,서울특별시 강서구 마곡동 774-2 보타닉파크타워2 110호,서울특별시 강서구 마곡동 774-2,126.831365571556,37.5596993751147,
매머드익스프레스 개화산역점,서울특별시 강서구 양천로 19,서울특별시 강서구 방화동 498-4 라테라스 101호,서울특별시 강서구 방화동 498-4,126.806007387736,37.5728161264221,
그릭다,서울특별시 강서구 마곡중앙로 161-22,서울특별시 강서구 마곡동 758-2 마곡일성트루엘플래닛 107호,서울특별시 강서구 마곡동 758-2,126.82578514534,37.568638335633,
카페 라스팔마스,서울특별시 강서구 마곡중앙4로 22,서울특별시 강서구 마곡동 799-11 파인스퀘어 B동 103호,서울특별시 강서구 마곡동 799-11,126.829009917866,37.5582829549403,
디바이드바이커피(DIVIDE BY COFFEE),서울특별시 강서구 마곡중앙8로5길 63,서울특별시 강서구 마곡동 782 1층 113호,서울특별시 강서구 마곡동 782,126.838422664924,37.5666164557397,
봉명동내커피 마곡점,서울특별시 강서구 마곡동로10길 23,서울특별시 강서구 마곡동 776 마곡파크뷰대방디엠시티오피스텔 114호,서울특별시 강서구 마곡동 776,126.839355910873,37.5686751510585,
Hello There(헬로우 데어),서울특별시 강서구 마곡중앙4로 22,서울특별시 강서구 마곡동 799-11 파인스퀘어 B동 119호,서울특별시 강서구 마곡동 799-11,126.829009917866,37.5582829549403,
LATTE YOU(라떼유),서울특별시 강서구 공항대로59길 22,서울특별시 강서구 등촌동 647-37 1층 ,서울특별시 강서구 등촌동 647-37,126.863886244047,37.5526896932108,
밀림,서울특별시 강서구 등촌로 213,서울특별시 강서구 등촌동 510-13 1층 ,서울특별시 강서구 등촌동 510-13,126.862988809415,37.5487350773536,
Brotzeit(브로트짜이트),서울특별시 강서구 곰달래로49길 95,서울특별시 강서구 화곡동 463-27 1층 ,서울특별시 강서구 화곡동 463-27,126.855456512833,37.5353954573374,
공차 마곡역점,서울특별시 강서구 공항대로 168,서울특별시 강서구 마곡동 798-3 747 1층 107호,서울특별시 강서구 마곡동 798-3,126.82617926012,37.5592465814627,
어나더사이드,서울특별시 강서구 강서로 318,서울특별시 강서구 내발산동 677 1층 ,서울특별시 강서구 내발산동 677,126.837149511419,37.5540279731359,
KEEP GOING (킵고카페),서울특별시 강서구 강서로17가길 46,"서울특별시 강서구 화곡동 351-89 중앙하이츠아파트 1층 102,103호 상가동 ",서울특별시 강서구 화곡동 351-89,126.843529234023,37.536466772,
과당,서울특별시 강서구 강서로8길 166-8,서울특별시 강서구 화곡동 846-38 지디로뷰 102호,서울특별시 강서구 화곡동 846-38,126.857324928882,37.5304799793701,
GGUDDA 꾸따,서울특별시 강서구 양천로30길 76,서울특별시 강서구 방화동 198-5 길성빌딩 ,서울특별시 강서구 방화동 198-5,126.822627305226,37.5697742022988,
움라우트 카페,서울특별시 강서구 강서로33가길 52,서울특별시 강서구 화곡동 1032-4 1층 ,서울특별시 강서구 화곡동 1032-4,126.837568891314,37.5438215983397,
주다카롱(judacaron),서울특별시 강서구 마곡중앙4로 22,서울특별시 강서구 마곡동 799-11 파인스퀘어 B동 113호,서울특별시 강서구 마곡동 799-11,126.829009917866,37.5582829549403,
진심커피 마곡우성점,서울특별시 강서구 공항대로 220,서울특별시 강서구 마곡동 800-3 우성에스비타워Ⅱ 1층 112호,서울특별시 강서구 마곡동 800-3,126.831765636495,37.5587038045971,
크로플 아일랜드,서울특별시 강서구 방화대로37길 35,서울특별시 강서구 방화동 794 마곡현대1차아파트 1층 상가동 1호,서울특별시 강서구 방화동 794,126.814243409875,37.5698665444532,
컴포즈커피 목동사거리점,서울특별시 강서구 등촌로5길 2,서울특별시 강서구 화곡동 775-8 1층 102호,서울특별시 강서구 화곡동 775-8,126.863297865971,37.5334847631785,
베트남 쌍둥이 커피,서울특별시 강서구 공항대로4길 16,서울특별시 강서구 공항동 42-15 102호,서울특별시 강서구 공항동 42-15,126.810642700316,37.5605112902228,
CAFE OZ(카페오즈),서울특별시 강서구 강서로 178,서울특별시 강서구 화곡동 1052-9 1층 ,서울특별시 강서구 화곡동 1052-9,126.839974060623,37.5425296967668,
제제커피 마곡나루점,서울특별시 강서구 마곡중앙5로 18,서울특별시 강서구 마곡동 759-5 메이플레이스 빌딩 1층 판매6호,서울특별시 강서구 마곡동 759-5,126.825841587227,37.5672462920678,
달쥬과일상점 마곡31호점,서울특별시 강서구 마곡중앙2로 35,서울특별시 강서구 마곡동 800-15 이너매스마곡Ⅱ 123호,서울특별시 강서구 마곡동 800-15,126.830661784149,37.5579650314969,
그릿 시냇가,서울특별시 강서구 까치산로15길 6,서울특별시 강서구 화곡동 29-177 1층 ,서울특별시 강서구 화곡동 29-177,126.847988584515,37.5468410217499,
블루샥 마곡중앙점,서울특별시 강서구 마곡중앙6로 21,서울특별시 강서구 마곡동 771-4 이너매스마곡Ⅰ 107호,서울특별시 강서구 마곡동 771-4,126.829618546018,37.560835635621,
카페 다정,서울특별시 강서구 등촌로39바길 22,서울특별시 강서구 등촌동 522-36 무지개하우스 1층 101호,서울특별시 강서구 등촌동 522-36,126.861162187679,37.5471788121128,
플러스82 마곡점,서울특별시 강서구 마곡중앙6로 16,서울특별시 강서구 마곡동 773-2 마곡지엠지타워 130호,서울특별시 강서구 마곡동 773-2,126.829006208171,37.5604015515818,
아이키친 마곡점,서울특별시 강서구 마곡중앙로 59-21,"서울특별시 강서구 마곡동 798-5 에이스타워Ⅱ 3층 323,324호",서울특별시 강서구 마곡동 798-5,126.824241089722,37.5588046568145,
친구떡볶이카페,서울특별시 강서구 마곡중앙로 161-17,서울특별시 강서구 마곡동 759-3 보타닉파크타워Ⅰ 115호,서울특별시 강서구 마곡동 759-3,126.825960812712,37.5680581740122,
예루커피컴퍼니,서울특별시 강서구 마곡중앙6로 21,서울특별시 강서구 마곡동 771-4 이너매스마곡Ⅰ 105호,서울특별시 강서구 마곡동 771-4,126.829618546018,37.560835635621,
피커 PICKER,서울특별시 강서구 마곡동로3길 26,서울특별시 강서구 마곡동 774-5 랑데르2 112호,서울특별시 강서구 마곡동 774-5,126.830520236383,37.5601974065541,
리플레이버(RE:FLAVOR),서울특별시 강서구 화곡로26가길 64,서울특별시 강서구 화곡동 1073-36 101호,서울특별시 강서구 화곡동 1073-36,126.836542822014,37.5400259865949,
야르르,서울특별시 강서구 공항대로 228,서울특별시 강서구 마곡동 800-5 117호,서울특별시 강서구 마곡동 800-5,126.832674163293,37.5586327456572,
팔공티 화곡아따이점,서울특별시 강서구 화곡로34길 23,서울특별시 강서구 화곡동 61-9 명주캐슬 101호,서울특별시 강서구 화곡동 61-9,126.845009015936,37.5435903107647,
커피사피엔스 염창 한강G트리타워점,서울특별시 강서구 양천로 738,서울특별시 강서구 염창동 261-4 한강G트리타워 1층 106호,서울특별시 강서구 염창동 261-4,126.877695605294,37.5486647303913,
우주라이크커피 화곡역점,서울특별시 강서구 화곡로 120,서울특별시 강서구 화곡동 1070-11 강서2차 크라운팰리스 101동 101호,서울특별시 강서구 화곡동 1070-11,126.835323345979,37.5400529440844,
카페 허니 힐(Cafe Honey Hill),서울특별시 강서구 화곡로58길 51,서울특별시 강서구 화곡동 1131-15 오성파크빌 101호,서울특별시 강서구 화곡동 1131-15,126.853813777352,37.5527292794912,
attirance 아띠랑스,서울특별시 강서구 화곡로13길 104,서울특별시 강서구 화곡동 1016-36 103호,서울특별시 강서구 화곡동 1016-36,126.833097646355,37.5445884198873,
빙츄르,서울특별시 강서구 마곡중앙6로 10,서울특별시 강서구 마곡동 773-1 마곡역센트럴푸르지오시티 1층 상가동 119호,서울특별시 강서구 마곡동 773-1,126.828207752706,37.560386517159,
얍얍커피(yapyap coffee),서울특별시 강서구 마곡서로 101,서울특별시 강서구 마곡동 768-2 1층 126호 ,서울특별시 강서구 마곡동 768-2,126.823605646871,37.5626706927393,
카페 딜런,서울특별시 강서구 강서로74길 40,서울특별시 강서구 가양동 115-10 1층 101호,서울특별시 강서구 가양동 115-10,126.843086317713,37.5668358316389,
텐퍼센트커피 신방화역점,서울특별시 강서구 초원로16길 3-11,서울특별시 강서구 방화동 908 힐스테이트 신방화역 지하1층 109호,서울특별시 강서구 방화동 908,126.815909319732,37.5672373491884,
빽다방(마곡수명산점),서울특별시 강서구 강서로47길 169,서울특별시 강서구 내발산동 750-12 웨스트엔드아트센터 103호,서울특별시 강서구 내발산동 750-12,126.826716924031,37.5534518023057,
푸른초장,서울특별시 강서구 공항대로59다길 147,서울특별시 강서구 염창동 264-30 염창교회 1층 ,서울특별시 강서구 염창동 264-30,126.870763883569,37.5502570690936,
르네의 케익,서울특별시 강서구 화곡로21길 71,서울특별시 강서구 화곡동 1168 스위트드림아파트 119호,서울특별시 강서구 화곡동 1168,126.836168602837,37.5439708514164,
빽다방 강서구청점,서울특별시 강서구 화곡로 318-1,서울특별시 강서구 화곡동 1117-10 1층 ,서울특별시 강서구 화곡동 1117-10,126.850480356355,37.5522879415161,
버터풀리,서울특별시 강서구 마곡중앙6로 10,서울특별시 강서구 마곡동 773-1 마곡역센트럴푸르지오시티 1층 103호,서울특별시 강서구 마곡동 773-1,126.828207752706,37.560386517159,
카페 아크,서울특별시 강서구 곰달래로31길 8,서울특별시 강서구 화곡동 872-22 1층 104호,서울특별시 강서구 화곡동 872-22,126.851506896409,37.531298033796,
픽업 커피,서울특별시 강서구 까치산로 71,서울특별시 강서구 화곡동 24-552 1층 ,서울특별시 강서구 화곡동 24-552,126.846823472657,37.5450781546055,
뿌루밀리 까치산역점,서울특별시 강서구 강서로 39,서울특별시 강서구 화곡동 343-57 1층 ,서울특별시 강서구 화곡동 343-57,126.846695520611,37.5313576591579,
오트 앤 아이보리,서울특별시 강서구 마곡중앙로 161-1,서울특별시 강서구 마곡동 760-2 마곡나루역캐슬파크 1층 112호,서울특별시 강서구 마곡동 760-2,126.827453357716,37.5678656599047,
컾 강서점,서울특별시 강서구 곰달래로 231,서울특별시 강서구 화곡동 839-12 1층 ,서울특별시 강서구 화곡동 839-12,126.858720666417,37.5319277633317,
세 주르(Ce Jour),서울특별시 강서구 강서로18다길 28,서울특별시 강서구 화곡동 332-20 1층 좌측호 ,서울특별시 강서구 화곡동 332-20,126.847245244247,37.5354666620108,
댓츠카페(That's cafe),서울특별시 강서구 개화동로17길 9,서울특별시 강서구 개화동 637-15 ,서울특별시 강서구 개화동 637-15,126.802484799611,37.5761771172594,
빽다방 마곡리더스타워점,서울특별시 강서구 공항대로 228,서울특별시 강서구 마곡동 800-5 1층 1동 111호,서울특별시 강서구 마곡동 800-5,126.832674163293,37.5586327456572,
카페아크 CAFE ARK,서울특별시 강서구 까치산로2길 89-1,서울특별시 강서구 화곡동 105-456 화곡중앙교회 교육관 1층 ,서울특별시 강서구 화곡동 105-456,126.843852642163,37.53753236179,
코지옐로,서울특별시 강서구 월정로30길 50,서울특별시 강서구 화곡동 362-44 1층 ,서울특별시 강서구 화곡동 362-44,126.838667245382,37.5345485786652,
소이조이,서울특별시 강서구 양천로 686-5,서울특별시 강서구 염창동 264-27 삼성한아름아파트 상가동 101호,서울특별시 강서구 염창동 264-27,126.871742504946,37.5500783870633,
에이바우트커피 양천향교역점,서울특별시 강서구 강서로 466,서울특별시 강서구 등촌동 684-2 우리벤처타운 1층 101호,서울특별시 강서구 등촌동 684-2,126.841425906814,37.5668985748469,
폴 바셋 강서마곡DT점,서울특별시 강서구 양천로 300,서울특별시 강서구 마곡동 813-3 1~2층 ,서울특별시 강서구 마곡동 813-3,126.836760533407,37.5705801676508,
벤티프레소 가양점,서울특별시 강서구 양천로 400-12,서울특별시 강서구 가양동 54-6 더리브골드타워 1층 106호,서울특별시 강서구 가양동 54-6,126.84575653524,37.565327390436,
브이업짐 우장산점,서울특별시 강서구 강서로 231,서울특별시 강서구 화곡동 1170 우장산역 해링턴 타워 지하1층 ,서울특별시 강서구 화곡동 1170,126.836117683731,37.546244810291,
달리는커피 마곡역점,서울특별시 강서구 마곡중앙2로 5,서울특별시 강서구 마곡동 799-6 지하1층 106호,서울특별시 강서구 마곡동 799-6,126.827453842928,37.5584780994004,
메가엠지씨커피 마곡공진초점,서울특별시 강서구 마곡중앙1로 26,서울특별시 강서구 마곡동 798-12 엠리체 1층 107호,서울특별시 강서구 마곡동 798-12,126.823855000993,37.5586282971172,
