업소명,소재지도로명주소,소재지지번주소,address,latitude,longitude,chain
엔제리너스가양아름다운아울렛점,서울특별시 강서구 양천로 476,서울특별시 강서구 등촌동 73-1 (지상 7층) 5호,서울특별시 강서구 등촌동 73-1,126.853267521739,37.5616117077467,엔제리너스
투썸플레이스우장산역,서울특별시 강서구 강서로 259,서울특별시 강서구 내발산동 723-2 우장산역엠버리움빌딩 (지상 1~2층) 101호 201~202호 ,서울특별시 강서구 내발산동 723-2,126.836009943486,37.5488849449359,투썸플레이스
롯데컬쳐웍스(주)롯데시네마 김포공항 엔제리너스,서울특별시 강서구 하늘길 38,서울특별시 강서구 방화동 886-0 외 6필지 김포공항스카이파크 (지상 1층) ,서울특별시 강서구 방화동 886-0,126.802991808588,37.5650596091039,엔제리너스
엔제리너스 롯데몰 김포공항2호점,서울특별시 강서구 하늘길 38,서울특별시 강서구 방화동 886-0 외 6필지 김포공항스카이파크 (지하 2층) ,서울특별시 강서구 방화동 886-0,126.802991808588,37.5650596091039,엔제리너스
투썸플레이스 가양역점,서울특별시 강서구 양천로 504,서울특별시 강서구 등촌동 628-11 청산빌딩 (지상 1층) ,서울특별시 강서구 등촌동 628-11,126.855988310925,37.5603805130077,투썸플레이스
스타벅스커피 까치산역점,서울특별시 강서구 강서로13길 3,서울특별시 강서구 화곡동 343-1 외 1필지 동진빌딩 (지하 1층~지상 1층) ,서울특별시 강서구 화곡동 343-1,126.846103558968,37.5323081654783,스타벅스
엔제리너스 김포공항1층점,서울특별시 강서구 하늘길 112,서울특별시 강서구 공항동 1373-0 국내선청사 (지상 1층) ,서울특별시 강서구 공항동 1373-0,126.808109224979,37.5558909472488,엔제리너스
엔제리너스 김포공항역사점,서울특별시 강서구 하늘길 지하 77,서울특별시 강서구 방화동 886 김포공항역 지하2층 ,서울특별시 강서구 방화동 886,126.802991808588,37.5650596091039,엔제리너스
투썸플레이스 양천향교역점,서울특별시 강서구 강서로 460,서울특별시 강서구 등촌동 682-0 평안빌딩 (지상 1층) 102~105호 ,서울특별시 강서구 등촌동 682-0,126.841129472317,37.5663068532685,투썸플레이스
스타벅스커피 염창역점,서울특별시 강서구 공항대로 627,서울특별시 강서구 염창동 282-23 (지상 1층) ,서울특별시 강서구 염창동 282-23,126.87454034121,37.5473456022757,스타벅스
스타벅스커피 발산역점,서울특별시 강서구 강서로 388,서울특별시 강서구 등촌동 678-14 그랜드백화점 (지상 1층) 주차장동 ,서울특별시 강서구 등촌동 678-14,126.839308283379,37.5601260818984,스타벅스
투썸플레이스 등촌역점,서울특별시 강서구 공항대로 519,서울특별시 강서구 등촌동 648-4 (지상 1층) ,서울특별시 강서구 등촌동 648-4,126.864151262817,37.5517672869,투썸플레이스
스타벅스커피 등촌점,서울특별시 강서구 공항대로 329,서울특별시 강서구 등촌동 668-9 (지상 1층) ,서울특별시 강서구 등촌동 668-9,126.844303963232,37.5582702360665,스타벅스
스타벅스커피 화곡동점,서울특별시 강서구 화곡로 142,"서울특별시 강서구 화곡동 1073-10 외 12필지 메가박스 (지상 1~2층) 112~113, 205호 ",서울특별시 강서구 화곡동 1073-10,126.83756888925,37.5405888148954,스타벅스
투썸플레이스 개화산역점,서울특별시 강서구 양천로 28,서울특별시 강서구 방화동 849-0 벽산에어트리움 (지상 1층) 본관동 126~127호,서울특별시 강서구 방화동 849-0,126.806951865442,37.572356455995,투썸플레이스
투썸플레이스 까치산역점,서울특별시 강서구 강서로 43,"서울특별시 강서구 화곡동 343-52 도양라비앙타워 1층, 지하1층 ",서울특별시 강서구 화곡동 343-52,126.846538170813,37.5316222588337,투썸플레이스
투썸플레이스(신방화역점),서울특별시 강서구 방화대로 294,"서울특별시 강서구 마곡동 739-1 마곡더블유타워 (지상 1~2층) 118~9, 210호 ",서울특별시 강서구 마곡동 739-1,126.817080090346,37.5670376164659,투썸플레이스
스타벅스 양천향교역,서울특별시 강서구 강서로 463,서울특별시 강서구 마곡동 776-6 새싹타워 (지상 1층) 1~2호,서울특별시 강서구 마곡동 776-6,126.840459997021,37.5669772818718,스타벅스
스타벅스 화곡DT점,서울특별시 강서구 등촌로 57,서울특별시 강서구 화곡동 772-67 (지상1~3층) ,서울특별시 강서구 화곡동 772-67,126.86318804786,37.5350107501795,스타벅스
스타벅스 가양역점,서울특별시 강서구 양천로 476,서울특별시 강서구 등촌동 73-1 금부빌딩 (지상1층) A호,서울특별시 강서구 등촌동 73-1,126.853267521739,37.5616117077467,스타벅스
스타벅스 마곡GMG점,서울특별시 강서구 마곡중앙6로 16,서울특별시 강서구 마곡동 773-2 마곡지엠지타워 (지상 1층) 117일부~120호 ,서울특별시 강서구 마곡동 773-2,126.829111999077,37.5604160305832,스타벅스
스타벅스 마곡나루역점,서울특별시 강서구 마곡중앙로 161-17,"서울특별시 강서구 마곡동 759-3 보타닉파크타워1, 105,203,204호 ",서울특별시 강서구 마곡동 759-3,126.8259696813,37.5680411582871,스타벅스
스타벅스 방화DT,서울특별시 강서구 방화대로 375,서울특별시 강서구 방화동 293-4 외 2필지 세움빌딩 (지상 2~3층) ,서울특별시 강서구 방화동 293-4,126.816318581652,37.5744889167589,스타벅스
더벤티 NC강서점,서울특별시 강서구 강서로56길 17,서울특별시 강서구 등촌동 689 엔씨백화점 (지하 1층) ,서울특별시 강서구 등촌동 689,126.840349890548,37.5599628829761,더벤티
투썸플레이스 마곡점,서울특별시 강서구 마곡중앙6로 40,서울특별시 강서구 마곡동 774-8 장흥빌딩 ,서울특별시 강서구 마곡동 774-8,126.831552319998,37.5601509505688,투썸플레이스
더벤티 롯데마트김포공항점,서울특별시 강서구 하늘길 38,"서울특별시 강서구 방화동 886 김포공항, 롯데몰, 스카이시티 (지하 2층) ",서울특별시 강서구 방화동 886,126.802991808588,37.5650596091039,더벤티
투썸플레이스 강서구청점,서울특별시 강서구 화곡로 347,"서울특별시 강서구 화곡동 1095-0 그랜드아이파크 (지상 1~2층) 115~116, 2호",서울특별시 강서구 화곡동 1095-0,126.851250232655,37.5548546834697,투썸플레이스
스타벅스 우장산역점,서울특별시 강서구 강서로 267,서울특별시 강서구 내발산동 719-6 송화쇼핑센터 (지상 1층) 014~017호,서울특별시 강서구 내발산동 719-6,126.83592116381,37.5495832749716,스타벅스
스타벅스 마곡사이언스타워R점,서울특별시 강서구 마곡동로 62,서울특별시 강서구 마곡동 796-3 마곡사이언스타워 (지상 1~2층) ,서울특별시 강서구 마곡동 796-3,126.833955343472,37.5605687225552,스타벅스
투썸플레이스 마곡나루역점,서울특별시 강서구 마곡중앙5로 6,서울특별시 강서구 마곡동 760-0 마곡나루역보타닉푸르지오시티 (지상 1~2층) 157~240호,서울특별시 강서구 마곡동 760-0,126.826992736525,37.5672479846037,투썸플레이스
CGV등촌 투썸플레이스,서울특별시 강서구 공항대로45길 63,서울특별시 강서구 등촌동 639-23 (지상3층) ,서울특별시 강서구 등촌동 639-23,126.856046227411,37.5578675246315,투썸플레이스
더벤티 마곡나루역점,서울특별시 강서구 마곡중앙로 161-11,서울특별시 강서구 마곡동 760-1 힐스테이트에코마곡나루역라마다앙코르서울(지상 1층) A동 110호,서울특별시 강서구 마곡동 760-1,126.826732160088,37.5679366832222,더벤티
스타벅스 발산역사거리점,서울특별시 강서구 공항대로 248,"서울특별시 강서구 마곡동 801-2 1~2층 104,105,106,107,203,204호 ",서울특별시 강서구 마곡동 801-2,126.83491411299,37.5584081270031,스타벅스
더벤티 까치산역점,서울특별시 강서구 강서로 52,서울특별시 강서구 화곡동 341-65 화곡판타지아(지상 1층) 108호,서울특별시 강서구 화곡동 341-65,126.846694231039,37.5324851693898,더벤티
더벤티 마곡역점,서울특별시 강서구 마곡서로 56,서울특별시 강서구 마곡동 798-4 (지상 1층) 104호,서울특별시 강서구 마곡동 798-4,126.823925309233,37.5590025856377,더벤티
스타벅스 마곡역점,서울특별시 강서구 공항대로 168,서울특별시 강서구 마곡동 798-3 1층 101~104호 ,서울특별시 강서구 마곡동 798-3,126.82617926012,37.5592465814627,스타벅스
더벤티양천향교역점,서울특별시 강서구 마곡동로10길 23,서울특별시 강서구 마곡동 776 마곡파크뷰대방디엠시티오피스텔(지상 1층) 133호,서울특별시 강서구 마곡동 776,126.839375312516,37.5686012057916,더벤티
엔제리너스 롯데몰김포영풍문고점,서울특별시 강서구 하늘길 38,"서울특별시 강서구 방화동 886 김포공항, 롯데몰, 스카이시티, GF층 ",서울특별시 강서구 방화동 886,126.802991808588,37.5650596091039,엔제리너스
더벤티,서울특별시 강서구 강서로45길 9,서울특별시 강서구 화곡동 1006 1층 ,서울특별시 강서구 화곡동 1006,126.835663828819,37.5477788493755,더벤티
투썸플레이스등촌로점,서울특별시 강서구 등촌로 177,"서울특별시 강서구 등촌동 719 경남파크빌(지상 1~2층), 101~201호 ",서울특별시 강서구 등촌동 719,126.862059380121,37.5457985430564,투썸플레이스
투썸플레이스 마곡역점,서울특별시 강서구 마곡중앙로 59-9,"서울특별시 강서구 마곡동 798-9 (지상 1~2층) 101~102,201~204호 ",서울특별시 강서구 마곡동 798-9,126.825618624661,37.5588352609761,투썸플레이스
투썸플레이스 화곡역점,서울특별시 강서구 강서로 163,서울특별시 강서구 화곡동 1075-3 콤마빌딩 1~2층 ,서울특별시 강서구 화곡동 1075-3,126.840346710477,37.5412398807833,투썸플레이스
폴바셋 강서부민병원점,서울특별시 강서구 공항대로 389,서울특별시 강서구 등촌동 657 부민병원 1층 ,서울특별시 강서구 등촌동 657,126.850994485911,37.5568325895602,폴바셋
스타벅스 강서구청사거리점,서울특별시 강서구 화곡로 350,"서울특별시 강서구 화곡동 1111 SJ라벨라 1층 104, 105, 106,107호 ",서울특별시 강서구 화곡동 1111,126.852356873973,37.5549481543332,스타벅스
더벤티 개화산역점,서울특별시 강서구 양천로10길 38,서울특별시 강서구 방화동 904 신마곡벽산블루밍 판매시설2동 105동 106호 ,서울특별시 강서구 방화동 904,126.808179412194,37.5712896980823,더벤티
스타벅스 등촌대로점,서울특별시 강서구 공항대로 543,"서울특별시 강서구 염창동 274-17 센터스퀘어(지상 1층) 104-2.105,106 ",서울특별시 강서구 염창동 274-17,126.866412265444,37.5507388549618,스타벅스
더벤티,서울특별시 강서구 화곡로 158,서울특별시 강서구 화곡동 1074-17 세림빌딩 1층 ,서울특별시 강서구 화곡동 1074-17,126.839198558546,37.5410822699007,더벤티
투썸플레이스 발산W타워점,서울특별시 강서구 공항대로 222,서울특별시 강서구 마곡동 800-4 발산W타워 101~102호 ,서울특별시 강서구 마곡동 800-4,126.832202660216,37.5586846946816,투썸플레이스
스타벅스 가양역사거리점,서울특별시 강서구 화곡로 416,서울특별시 강서구 등촌동 628-9 가양역 더스카이밸리5차 지식산업센터1층 ,서울특별시 강서구 등촌동 628-9,126.855473422039,37.5600443528765,스타벅스
스타벅스 강서NC점,서울특별시 강서구 강서로56길 17,서울특별시 강서구 등촌동 689 NC 강서점 1층 일부 ,서울특별시 강서구 등촌동 689,126.840349890548,37.5599628829761,스타벅스
더벤티 가양역점,서울특별시 강서구 양천로 492,서울특별시 강서구 등촌동 78-7 외 1필지 길훈엔트런스빌 1층 104호,서울특별시 강서구 등촌동 78-7,126.854587378678,37.5608949765795,더벤티
더벤티강서구청사거리점,서울특별시 강서구 화곡로64길 2,서울특별시 강서구 등촌동 656 경동미르웰한올림 1층 101호,서울특별시 강서구 등촌동 656,126.853571330412,37.5572605432377,더벤티
투썸플레이스 강서등촌한빛점,서울특별시 강서구 공항대로45길 33,서울특별시 강서구 등촌동 656-37 한빛어반뉴스토리 1~2층 101호 ,서울특별시 강서구 등촌동 656-37,126.854998945031,37.5567868491738,투썸플레이스
스타벅스 내발산점,서울특별시 강서구 강서로 323,"서울특별시 강서구 내발산동 668 101,102호 ",서울특별시 강서구 내발산동 668,126.836550082246,37.5546841517761,스타벅스
투썸플레이스 강서등촌3동점,서울특별시 강서구 공항대로41길 34,서울특별시 강서구 등촌동 700 플러스존 102호,서울특별시 강서구 등촌동 700,126.845730930212,37.559301227122,투썸플레이스
스타벅스 마곡웰튼점,서울특별시 강서구 마곡중앙5로 22,"서울특별시 강서구 마곡동 759-2 1층 104,105,106호 ",서울특별시 강서구 마곡동 759-2,126.825304184792,37.5672824388665,스타벅스
더벤티 공항시장역점,서울특별시 강서구 공항대로3길 38,서울특별시 강서구 공항동 22-56 가동 103호,서울특별시 강서구 공항동 22-56,126.810655507471,37.5632324069286,더벤티
스타벅스 강서우장산점,서울특별시 강서구 강서로 231,"서울특별시 강서구 화곡동 1170 우장산역 해링턴 타워 116, 117, 118, 119, 120호 ",서울특별시 강서구 화곡동 1170,126.835937500248,37.5461569830675,스타벅스
스타벅스 김포공항DT점,서울특별시 강서구 개화동로 517,서울특별시 강서구 방화동 645-6 ,서울특별시 강서구 방화동 645-6,126.806080586799,37.566282867801,스타벅스
스타벅스 화곡역8번출구점,서울특별시 강서구 강서로 179,서울특별시 강서구 화곡동 1051-27 1층 일부호,서울특별시 강서구 화곡동 1051-27,126.839263788134,37.5423746613168,스타벅스
투썸플레이스 강서화곡로,서울특별시 강서구 화곡로 228,서울특별시 강서구 화곡동 24-484 대원빌딩 1층 ,서울특별시 강서구 화곡동 24-484,126.844966129714,37.5453936929923,투썸플레이스
더벤티커피(theVenti COFFEE) 등촌2동점,서울특별시 강서구 등촌로 173,서울특별시 강서구 등촌동 513-1 3호,서울특별시 강서구 등촌동 513-1,126.862078204728,37.545408162407,더벤티
